,시도명,시군구명,상호명,지점명,경도,위도,도로명주소,ID,빽다방 매장수,브랜드명
0,서울특별시,서초구,빽다방커피,-,127.01544686795799,37.4934611599069,서울특별시 서초구 서초중앙로22길 25,서울 서초,1,빽다방
1,서울특별시,동대문구,빽다방외대역점,외대역점,127.062159678677,37.595777080494706,서울특별시 동대문구 휘경로 17,서울 동대문,1,빽다방
2,서울특별시,광진구,빽다방,어린이대공원역점,127.072308882533,37.548092780392295,서울특별시 광진구 광나루로 381-1,서울 광진,1,빽다방
3,서울특별시,송파구,빽다방,오금역점,127.126105166905,37.5028736267339,서울특별시 송파구 오금로 306,서울 송파,1,빽다방
4,서울특별시,광진구,빽다방,건대역화양점,127.068601720033,37.542251817925404,서울특별시 광진구 아차산로29길 29-1,서울 광진,1,빽다방
5,서울특별시,중구,빽다방,명동중앙우체국점,126.981850842876,37.56242188892,서울특별시 중구 남대문로 58-1,서울 중구,1,빽다방
6,서울특별시,강동구,빽다방둔촌동역점,둔촌동역점,127.13498881066201,37.5259430693418,서울특별시 강동구 양재대로 1339,서울 강동,1,빽다방
7,서울특별시,강동구,빽다방명일역점,명일역점,127.145015066217,37.5505068029229,서울특별시 강동구 구천면로 418,서울 강동,1,빽다방
8,서울특별시,구로구,빽다방,구로로제리움점,126.89098050282499,37.496079587908,서울특별시 구로구 가마산로26길 5,서울 구로,1,빽다방
9,서울특별시,강남구,백다방,-,127.05048380151399,37.503055880061204,서울특별시 강남구 선릉로86길 8,서울 강남,1,빽다방
10,부산광역시,중구,빽다방,부산중앙사거리점,129.03531326137102,35.1050986955423,부산광역시 중구 중앙대로81번길 8,부산 중구,1,빽다방
11,서울특별시,강서구,빽다방,우장산역점,126.83598907708999,37.547558375193404,서울특별시 강서구 강서로 245,서울 강서,1,빽다방
12,서울특별시,양천구,빽다방,목동파리공원점,126.878710488349,37.5361411905761,서울특별시 양천구 목동서로 65,서울 양천,1,빽다방
13,서울특별시,성북구,빽다방성신여대점,성신여대점,127.016766340116,37.5919656787661,서울특별시 성북구 동소문로20나길 3,서울 성북,1,빽다방
14,서울특별시,관악구,빽다방신림역1호점,신림역1호점,126.927572287783,37.4836856261236,서울특별시 관악구 남부순환로 1592,서울 관악,1,빽다방
15,서울특별시,강북구,빽다방,강북구청점,127.02325996308399,37.63918889857021,서울특별시 강북구 도봉로87길 48,서울 강북,1,빽다방
16,서울특별시,강남구,빽다방,강남포스코센터점,127.056164781276,37.50458815090521,서울특별시 강남구 삼성로85길 11,서울 강남,1,빽다방
17,서울특별시,관악구,빽다방서울대메트로빌점,서울대메트로빌점,126.95143486907499,37.481728287947604,서울특별시 관악구 남부순환로 1811,서울 관악,1,빽다방
18,서울특별시,은평구,빽다방,구파발역점,126.91781919707199,37.6382868535544,서울특별시 은평구 진관2로 15-46,서울 은평,1,빽다방
19,부산광역시,동래구,빽다방,동래메가마트점,129.081972327769,35.2052503641454,부산광역시 동래구 명륜로129번길 3,부산 동래,1,빽다방
20,서울특별시,서대문구,빽다방,신촌역점,126.937132290814,37.5558646553565,서울특별시 서대문구 연세로2길 6,서울 서대문,1,빽다방
21,서울특별시,용산구,빽다방,신용산역점,126.967248983334,37.5304611874171,서울특별시 용산구 새창로 213,서울 용산,1,빽다방
22,부산광역시,해운대구,빽다방,반여대림점,129.117250138915,35.2006664588786,부산광역시 해운대구 선수촌로 95,부산 해운대,1,빽다방
23,부산광역시,중구,빽다방,부산광복로점,129.031692023169,35.0988828433885,부산광역시 중구 남포길 25-6,부산 중구,1,빽다방
24,서울특별시,서초구,빽다방서초우성점,서초우성점,127.029305512251,37.49302620183671,서울특별시 서초구 사임당로 181,서울 서초,1,빽다방
25,서울특별시,강남구,빽다방,한티역점,127.054649873493,37.49735857342539,서울특별시 강남구 도곡로 405,서울 강남,1,빽다방
26,부산광역시,연제구,빽다방,부산시청후문점,129.07344379887502,35.1813944840658,부산광역시 연제구 시청로31번길 4,부산 연제,1,빽다방
27,서울특별시,용산구,빽다방,원효용문시장점,126.96122513212299,37.535697489537704,서울특별시 용산구 새창로 132,서울 용산,1,빽다방
28,서울특별시,마포구,빽다방PAIKSCOFFEE,-,126.946484041253,37.5387565919428,서울특별시 마포구 마포대로4길 16,서울 마포,1,빽다방
29,서울특별시,광진구,빽다방,아차산점,127.090595663141,37.5528574310588,서울특별시 광진구 천호대로129길 17,서울 광진,1,빽다방
30,서울특별시,용산구,빽다방,-,126.97231088870001,37.5540406316575,서울특별시 용산구 한강대로 401,서울 용산,1,빽다방
31,서울특별시,강동구,빽다방강동역헤르셔점,강동역헤르셔점,127.133078371911,37.5365615358794,서울특별시 강동구 천호대로 1089,서울 강동,1,빽다방
32,서울특별시,광진구,빽다방,건대로데오점,127.06763752098499,37.5406223162116,서울특별시 광진구 아차산로 220,서울 광진,1,빽다방
33,서울특별시,강남구,빽다방,수서역점,127.101842066177,37.488013362892396,서울특별시 강남구 밤고개로1길 10,서울 강남,1,빽다방
34,서울특별시,은평구,빽다방,응암역이마트점,126.91906488865,37.5999955215884,서울특별시 은평구 은평로 101,서울 은평,1,빽다방
35,부산광역시,금정구,빽다방,부산대점,129.084856994117,35.233041164266794,부산광역시 금정구 부산대학로64번길 34,부산 금정,1,빽다방
36,서울특별시,서초구,스시마이우강남역빽다방,-,127.025258710394,37.4981198862454,서울특별시 서초구 서초대로73길 7,서울 서초,1,빽다방
37,서울특별시,송파구,빽다방,가락시장역점,127.120080194832,37.494881541292294,서울특별시 송파구 송파대로28길 27,서울 송파,1,빽다방
38,서울특별시,영등포구,빽다방,문래동국점,126.889893053852,37.520640826149,서울특별시 영등포구 선유로 76,서울 영등포,1,빽다방
39,서울특별시,은평구,빽다방,불광역점,126.929387929191,37.6114065814111,서울특별시 은평구 통일로 738,서울 은평,1,빽다방
40,부산광역시,해운대구,동백다방,-,129.17878638194202,35.1578084699269,부산광역시 해운대구 달맞이길117번가길 85,부산 해운대,1,빽다방
41,부산광역시,금정구,역전우동&빽다방,부산대역점,129.088897622113,35.2295886565065,부산광역시 금정구 장전온천천로 51,부산 금정,1,빽다방
42,서울특별시,은평구,빽다방,은평초교점,126.933906059207,37.601166707849394,서울특별시 은평구 은평로 235,서울 은평,1,빽다방
43,서울특별시,은평구,빽다방,연신내역점,126.91956302372101,37.6187955833889,서울특별시 은평구 연서로29길 6,서울 은평,1,빽다방
44,서울특별시,송파구,빽다방,잠실역지하도점,127.10057443601102,37.513566782124,서울특별시 송파구 올림픽로 265,서울 송파,1,빽다방
45,서울특별시,노원구,빽다방,-,127.061696492649,37.654268819238,서울특별시 노원구 노해로 482,서울 노원,1,빽다방
46,부산광역시,해운대구,빽다방,해운대역리베라점,129.162146750752,35.1624040260618,부산광역시 해운대구 구남로29번길 32,부산 해운대,1,빽다방
47,서울특별시,영등포구,빽다방,영등포신세계점,126.906159758204,37.5168190043624,서울특별시 영등포구 영중로 5,서울 영등포,1,빽다방
48,서울특별시,강남구,빽다방압구정로데오점,압구정로데오점,127.038363739911,37.5274034130564,서울특별시 강남구 선릉로161길 25,서울 강남,1,빽다방
49,서울특별시,마포구,빽다방상암KGIT점,상암KGIT점,126.889020628239,37.580200182873995,서울특별시 마포구 월드컵북로 402,서울 마포,1,빽다방
50,서울특별시,강남구,빽다방,대치동학원가점,127.058634041631,37.4988951550687,서울특별시 강남구 도곡로77길 8,서울 강남,1,빽다방
51,서울특별시,강남구,빽다방강남소망점,강남소망점,127.032623411179,37.5242298839832,서울특별시 강남구 언주로159길 3,서울 강남,1,빽다방
52,서울특별시,중구,빽다방,광희동사거리점,127.00585005469,37.5647528820446,서울특별시 중구 마른내로 159-1,서울 중구,1,빽다방
53,서울특별시,서초구,백다방커피,-,127.003393697161,37.50609197478621,서울특별시 서초구 신반포로 177,서울 서초,1,빽다방
54,부산광역시,남구,빽다방,부산경성대점,129.099177259531,35.136427788736896,부산광역시 남구 수영로298번길 9,부산 남구,1,빽다방
55,부산광역시,해운대구,빽다방해운대역점,해운대역점,129.158522006754,35.1629976008998,부산광역시 해운대구 해운대로 620,부산 해운대,1,빽다방
56,서울특별시,동대문구,빽다방회기역점,회기역점,127.057100636704,37.5901683268329,서울특별시 동대문구 회기로 191,서울 동대문,1,빽다방
57,부산광역시,남구,백다방,-,129.099177259531,35.136427788736896,부산광역시 남구 수영로298번길 9,부산 남구,1,빽다방
58,부산광역시,북구,홍콩반점&빽다방Ⅰ,부산구남역점,128.996134957382,35.1980366921032,부산광역시 북구 백양대로 1038,부산 북구,1,빽다방
59,서울특별시,강남구,빽다방,-,127.057100286394,37.5129393969289,서울특별시 강남구 봉은사로 524,서울 강남,1,빽다방
60,서울특별시,강서구,빽다방방화사거리점,방화사거리점,126.811063028353,37.573638084054,서울특별시 강서구 금낭화로 91-2,서울 강서,1,빽다방
61,서울특별시,서초구,빽다방,반포고투몰2호점,127.00681633008001,37.5064271601893,서울특별시 서초구 신반포로 194,서울 서초,1,빽다방
62,서울특별시,강동구,빽다방,-,127.12603588823099,37.536942133081006,서울특별시 강동구 천호옛길 94,서울 강동,1,빽다방
63,서울특별시,송파구,빽다방,잠실신천점,127.083922003993,37.5109248548268,서울특별시 송파구 백제고분로7길 45,서울 송파,1,빽다방
64,서울특별시,영등포구,빽다방,여의도시범상가점,126.93730538892099,37.521347273052704,서울특별시 영등포구 63로 45,서울 영등포,1,빽다방
65,서울특별시,동작구,빽다방중앙대병원점,중앙대병원점,126.959796109016,37.5074190727333,서울특별시 동작구 흑석로 93,서울 동작,1,빽다방
66,서울특별시,양천구,빽다방,목동역점,126.863022263222,37.5260887740468,서울특별시 양천구 오목로 231,서울 양천,1,빽다방
67,서울특별시,마포구,빽다방,마포용강점,126.943334064119,37.5398637608559,서울특별시 마포구 토정로 312,서울 마포,1,빽다방
68,서울특별시,종로구,역전우동&빽다방,동대문역점,127.011227014076,37.5715828962124,서울특별시 종로구 종로 300-1,서울 종로,1,빽다방
69,서울특별시,종로구,빽다방,종로구숭인1호점,127.020186665268,37.5746400544839,서울특별시 종로구 종로 387,서울 종로,1,빽다방
70,서울특별시,강남구,빽다방,선릉역1호점,127.04695593990499,37.504766507255795,서울특별시 강남구 테헤란로51길 10,서울 강남,1,빽다방
71,부산광역시,해운대구,빽다방,센텀SH밸리점,129.131025635398,35.172478588329504,부산광역시 해운대구 센텀동로 35,부산 해운대,1,빽다방
72,서울특별시,노원구,빽다방중계은행사거리점,중계은행사거리점,127.07632724025801,37.648788857427895,서울특별시 노원구 한글비석로 235,서울 노원,1,빽다방
73,서울특별시,송파구,빽다방,잠실장미상가점,127.09845837849,37.5164520546919,서울특별시 송파구 올림픽로35길 104,서울 송파,1,빽다방
74,서울특별시,성동구,빽다방,성수역롯데캐슬점,127.057113642168,37.5451341119425,서울특별시 성동구 성수이로 113,서울 성동,1,빽다방
75,부산광역시,부산진구,빽다방,-,129.06074567789,35.1538516943062,부산광역시 부산진구 중앙대로680번가길 9,부산 부산진,1,빽다방
76,서울특별시,강남구,빽다방논현본점,논현본점,127.024034656323,37.5070121958227,서울특별시 강남구 봉은사로1길 35,서울 강남,1,빽다방
77,서울특별시,마포구,빽다방,홍대입구점,126.923679579396,37.5547786713844,서울특별시 마포구 와우산로23길 44,서울 마포,1,빽다방
78,부산광역시,부산진구,빽다방,서면롯데점,129.05762913414,35.1564298810684,부산광역시 부산진구 서면로 63-1,부산 부산진,1,빽다방
79,서울특별시,영등포구,빽다방,서여의도점,126.91965710173001,37.5292244602697,서울특별시 영등포구 국회대로68길 11,서울 영등포,1,빽다방
80,서울특별시,용산구,백다방,-,126.972359276265,37.5422734213825,서울특별시 용산구 한강대로77길 4,서울 용산,1,빽다방
81,서울특별시,강남구,빽다방,강남역지하도점,127.02828915989099,37.4981538632695,서울특별시 강남구 강남대로 396,서울 강남,1,빽다방
82,서울특별시,광진구,홍콩반점&빽다방,어린이대공원역점,127.072308882533,37.548092780392295,서울특별시 광진구 광나루로 381-1,서울 광진,1,빽다방
83,서울특별시,구로구,빽다방,구로삼성IT점,126.894656689343,37.4860493561836,서울특별시 구로구 디지털로33길 27,서울 구로,1,빽다방
84,서울특별시,종로구,빽다방,대학로CGV점,127.00129137588002,37.5840237347298,서울특별시 종로구 대학로 143,서울 종로,1,빽다방
85,서울특별시,마포구,빽다방공덕새창로점,공덕새창로점,126.95182155306601,37.542228055760496,서울특별시 마포구 새창로 15-1,서울 마포,1,빽다방
86,서울특별시,구로구,빽다방구로시장점,구로시장점,126.891038366903,37.48987192608521,서울특별시 구로구 구로동로26길 125,서울 구로,1,빽다방
87,서울특별시,성북구,빽다방,안암역점,127.030139677648,37.5867061183319,서울특별시 성북구 인촌로 99-7,서울 성북,1,빽다방
88,서울특별시,송파구,빽다방,거여역점,127.14614424102,37.4931535340143,서울특별시 송파구 오금로 515,서울 송파,1,빽다방
89,서울특별시,서초구,빽다방강남스시마이우점,강남스시마이우점,127.025258710394,37.4981198862454,서울특별시 서초구 서초대로73길 7,서울 서초,1,빽다방
90,서울특별시,금천구,빽다방,가산대륭점,126.883859005074,37.4814335948223,서울특별시 금천구 벚꽃로 298,서울 금천,1,빽다방
91,서울특별시,송파구,빽다방,잠실장미상가점,127.099289046588,37.5198103241711,서울특별시 송파구 올림픽로35길 104,서울 송파,1,빽다방
92,서울특별시,서대문구,빽다방이대정문점,이대정문점,126.94539441896299,37.5590743650436,서울특별시 서대문구 이화여대길 55,서울 서대문,1,빽다방
93,부산광역시,수영구,빽다방,부산수영역점,129.116727351404,35.1680772878589,부산광역시 수영구 수영로 707,부산 수영,1,빽다방
94,서울특별시,강남구,빽다방청담영동고점,청담영동고점,127.040846418513,37.5190618367999,서울특별시 강남구 선릉로 720,서울 강남,1,빽다방
95,서울특별시,강남구,빽다방역삼테헤란로점,역삼테헤란로점,127.03300134683501,37.497570802009,서울특별시 강남구 테헤란로10길 25,서울 강남,1,빽다방
96,서울특별시,종로구,빽다방동대문역점,동대문역점,127.011227014076,37.5715828962124,서울특별시 종로구 종로 300-1,서울 종로,1,빽다방
97,서울특별시,성북구,빽다방,정릉시장점,127.01006551215299,37.6088582050941,서울특별시 성북구 보국문로 50,서울 성북,1,빽다방
98,서울특별시,동작구,빽다방노량진학원점,노량진학원점,126.94441923805901,37.5118419568225,서울특별시 동작구 만양로 94-2,서울 동작,1,빽다방
99,부산광역시,동래구,빽다방,부산사직시장점,129.060443230468,35.198184676393105,부산광역시 동래구 사직북로 26,부산 동래,1,빽다방
100,부산광역시,금정구,빽다방부산대역점,부산대역점,129.088897622113,35.2295886565065,부산광역시 금정구 장전온천천로 51,부산 금정,1,빽다방
101,서울특별시,성북구,빽다방,월곡역점,127.04209169141501,37.602977418173,서울특별시 성북구 화랑로 91,서울 성북,1,빽다방
102,서울특별시,서대문구,명지대빽다방,-,126.925247994337,37.580319346900296,서울특별시 서대문구 거북골로 19,서울 서대문,1,빽다방
103,서울특별시,서초구,빽다방고속터미널지하점,고속터미널지하점,127.00487667451799,37.503437361919104,서울특별시 서초구 신반포로 188,서울 서초,1,빽다방
104,서울특별시,동대문구,빽다방장한평역점,장한평역점,127.066018024941,37.5624960177555,서울특별시 동대문구 천호대로85길 7,서울 동대문,1,빽다방
105,서울특별시,성북구,빽다방종암사거리점,종암사거리점,127.03349841647801,37.6019072022586,서울특별시 성북구 종암로 132,서울 성북,1,빽다방
106,서울특별시,강동구,빽다방천호역로데오점,천호역로데오점,127.12675657259899,37.5391820827379,서울특별시 강동구 올림픽로70길 57,서울 강동,1,빽다방
107,서울특별시,중구,빽다방,남대문시장점,126.97631380603599,37.558436453144395,서울특별시 중구 퇴계로 37,서울 중구,1,빽다방
108,서울특별시,종로구,빽다방종로관철점,종로관철점,126.984523560147,37.5689864732841,서울특별시 종로구 종로10길 21,서울 종로,1,빽다방
109,서울특별시,노원구,빽다방월계광운대점,월계광운대점,127.05899530589899,37.621341452470006,서울특별시 노원구 광운로 43,서울 노원,1,빽다방
110,서울특별시,노원구,빽다방서울과기대점,서울과기대점,127.077097252402,37.6286837276645,서울특별시 노원구 공릉로 217,서울 노원,1,빽다방
111,서울특별시,서초구,빽다방,반포고투몰점,127.00239321346001,37.5039300142165,서울특별시 서초구 신반포로 176,서울 서초,1,빽다방
112,부산광역시,기장군,빽다방부산정관동오점,부산정관동오점,129.176985169345,35.3219741360558,부산광역시 기장군 정관읍 정관7로 17-3,부산 기장,1,빽다방
113,서울특별시,성동구,빽다방한양대점,한양대점,127.040809885254,37.5598971216855,서울특별시 성동구 마조로 21,서울 성동,1,빽다방
114,서울특별시,종로구,빽다방,-,127.01109142283,37.57156373958461,서울특별시 종로구 종로 300,서울 종로,1,빽다방
115,서울특별시,관악구,빽다방,관악구청점,126.952070038662,37.479156913804296,서울특별시 관악구 관악로 155,서울 관악,1,빽다방
116,서울특별시,중랑구,빽다방중랑역동부시장점,중랑역동부시장점,127.07641420398399,37.5932314069636,서울특별시 중랑구 망우로32길 14,서울 중랑,1,빽다방
117,부산광역시,북구,빽다방,부산구남역점,128.996134957382,35.1980366921032,부산광역시 북구 백양대로 1038,부산 북구,1,빽다방
118,부산광역시,부산진구,빽다방,서면영광도서점,129.057196894265,35.158651079039004,부산광역시 부산진구 서면문화로 11-2,부산 부산진,1,빽다방
119,서울특별시,강남구,빽다방삼성동공항타워점,삼성동공항타워점,127.057181907954,37.51004766128,서울특별시 강남구 삼성로100길 23,서울 강남,1,빽다방
120,서울특별시,중구,빽다방을지로입구역점,을지로입구역점,126.981870598664,37.566792112985894,서울특별시 중구 남대문로9길 10,서울 중구,1,빽다방
121,서울특별시,서초구,빽다방반포고투몰2호점,반포고투몰2호점,127.005032097372,37.5062139130796,서울특별시 서초구 신반포로 200,서울 서초,1,빽다방
122,서울특별시,성북구,빽다방,길음역점,127.023587192844,37.6029158766342,서울특별시 성북구 동소문로 248,서울 성북,1,빽다방
123,서울특별시,강서구,빽다방,등촌성당점,126.845763651157,37.5602237439063,서울특별시 강서구 공항대로41길 51,서울 강서,1,빽다방
124,서울특별시,강남구,빽다방,역삼GS점,127.037105519249,37.5029385751086,서울특별시 강남구 봉은사로30길 73,서울 강남,1,빽다방
125,서울특별시,강서구,빽다방-목동사거리점,목동사거리점,126.863156203089,37.5321720709016,서울특별시 강서구 곰달래로 272,서울 강서,1,빽다방
126,서울특별시,성동구,빽다방,서울숲역점,127.044863692986,37.546459316972296,서울특별시 성동구 왕십리로 100,서울 성동,1,빽다방
127,서울특별시,관악구,빽다방신림역2호점,신림역2호점,126.930081480452,37.4829605044237,서울특별시 관악구 신림로 322,서울 관악,1,빽다방
128,서울특별시,영등포구,빽다방,영등포구청점,126.896109201378,37.5248709142724,서울특별시 영등포구 당산로 113,서울 영등포,1,빽다방
129,서울특별시,영등포구,빽다방,당산역점,126.90321217103998,37.533487975697795,서울특별시 영등포구 양평로 28-1,서울 영등포,1,빽다방
130,서울특별시,구로구,빽다방,천왕역점,126.838236121943,37.4865892531971,서울특별시 구로구 오리로 1149,서울 구로,1,빽다방
131,서울특별시,동작구,빽다방,신대방삼거리점,126.93006935390699,37.4988729214505,서울특별시 동작구 국사봉1길 28,서울 동작,1,빽다방
132,서울특별시,동대문구,빽다방청량리역점,청량리역점,127.045849552914,37.5809683626288,서울특별시 동대문구 왕산로 209,서울 동대문,1,빽다방
133,서울특별시,강서구,빽다방,까치산역점,126.846716251306,37.5321928669701,서울특별시 강서구 강서로 48,서울 강서,1,빽다방
134,서울특별시,마포구,빽다방망원시장점,망원시장점,126.908240834692,37.5556460815286,서울특별시 마포구 월드컵로13길 34,서울 마포,1,빽다방
135,서울특별시,구로구,빽다방구로디지털역점,구로디지털역점,126.89973646898999,37.483546809370104,서울특별시 구로구 디지털로32길 79,서울 구로,1,빽다방
136,서울특별시,양천구,빽다방,등촌역점,126.86785614576901,37.5490846326655,서울특별시 양천구 공항대로 564,서울 양천,1,빽다방
137,서울특별시,중구,빽다방태평로점,태평로점,126.977061007622,37.5633896511335,서울특별시 중구 세종대로 82,서울 중구,1,빽다방
138,서울특별시,양천구,빽다방,목동41타워점,126.875752563272,37.5281659049786,서울특별시 양천구 목동동로 293,서울 양천,1,빽다방
139,부산광역시,중구,빽다방남포광장점,남포광장점,129.026830457615,35.0986627073677,부산광역시 중구 비프광장로 13-1,부산 중구,1,빽다방
140,서울특별시,송파구,빽다방,위례중앙점,127.142222616189,37.4771132063071,서울특별시 송파구 위례광장로 136,서울 송파,1,빽다방
141,서울특별시,서초구,빽다방총신대입구역점,총신대입구역점,126.98259197651001,37.4878845831925,서울특별시 서초구 동작대로 128,서울 서초,1,빽다방
142,서울특별시,동대문구,빽다방,신설동역1호점,127.02578195326099,37.576164074924,서울특별시 동대문구 왕산로 20,서울 동대문,1,빽다방
143,서울특별시,강남구,빽다방,-,127.029776927322,37.4950484396584,서울특별시 강남구 강남대로 358,서울 강남,1,빽다방
144,서울특별시,송파구,빽다방,방이역코오롱점,127.12388804167,37.5096782306582,서울특별시 송파구 마천로 25,서울 송파,1,빽다방
145,서울특별시,용산구,빽다방이태원점,이태원점,126.991857526383,37.5338004632857,서울특별시 용산구 보광로59길 37,서울 용산,1,빽다방
146,서울특별시,강남구,빽다방신사역점,신사역점,127.02252293427799,37.51972255750321,서울특별시 강남구 도산대로11길 34,서울 강남,1,빽다방
147,서울특별시,동작구,백다방,-,126.94441923805901,37.5118419568225,서울특별시 동작구 만양로 94-2,서울 동작,1,빽다방
148,서울특별시,은평구,백다방,-,126.91956302372101,37.6187955833889,서울특별시 은평구 연서로29길 6,서울 은평,1,빽다방
149,서울특별시,노원구,빽다방노원역북부점,노원역북부점,127.062260255401,37.65720166250721,서울특별시 노원구 상계로3길 21,서울 노원,1,빽다방
150,서울특별시,은평구,빽다방,구파발역미켈란점,126.91953814596201,37.635383282398,서울특별시 은평구 진관2로 15-8,서울 은평,1,빽다방
151,부산광역시,사하구,빽다방부산장림점,부산장림점,128.976363409367,35.0808891644535,부산광역시 사하구 장림번영로103번길 5,부산 사하,1,빽다방
152,서울특별시,중랑구,빽다방사가정역점,사가정역점,127.088696315639,37.5814961435024,서울특별시 중랑구 면목로 330-1,서울 중랑,1,빽다방
153,서울특별시,강서구,빽다방,마곡나루역북부점,126.826526036349,37.5686389298063,서울특별시 강서구 마곡중앙5로1길 20,서울 강서,1,빽다방
154,서울특별시,중구,빽다방,약수역점,127.010814506672,37.555694030957106,서울특별시 중구 다산로 131,서울 중구,1,빽다방
155,서울특별시,성동구,더본코리아_빽다방성수역,롯데캐슬점,127.057113642168,37.5451341119425,서울특별시 성동구 성수이로 113,서울 성동,1,빽다방
156,서울특별시,중구,빽다방명동중앙우체,-,126.981850842876,37.56242188892,서울특별시 중구 남대문로 58-1,서울 중구,1,빽다방
157,서울특별시,강서구,빽다방,발산역플레이스점,126.83859760462299,37.5610454865774,서울특별시 강서구 강서로 395,서울 강서,1,빽다방
158,부산광역시,북구,홍콩반점앤빽다방,부산구남역점,128.996134957382,35.1980366921032,부산광역시 북구 백양대로 1038,부산 북구,1,빽다방
159,서울특별시,강서구,더본코리아_빽다방등촌,성당점,126.845763651157,37.5602237439063,서울특별시 강서구 공항대로41길 51,서울 강서,1,빽다방
160,서울특별시,강동구,백다방,명일역점,127.145015066217,37.5505068029229,서울특별시 강동구 구천면로 418,서울 강동,1,빽다방
161,서울특별시,마포구,공덕역롯데캐슬점백다방,-,126.95086455328301,37.545111904302004,서울특별시 마포구 마포대로 109,서울 마포,1,빽다방
162,서울특별시,종로구,역전우동앤빽다방대학로,씨지브이점,127.00129137588002,37.5840237347298,서울특별시 종로구 대학로 143,서울 종로,1,빽다방
163,서울특별시,송파구,빽다방잠실장미상가,-,127.099289046588,37.5198103241711,서울특별시 송파구 올림픽로35길 104,서울 송파,1,빽다방
164,서울특별시,노원구,백다방,서울과기대점,127.077097252402,37.6286837276645,서울특별시 노원구 공릉로 217,서울 노원,1,빽다방
165,서울특별시,서초구,백다방,-,127.029305512251,37.49302620183671,서울특별시 서초구 사임당로 181,서울 서초,1,빽다방
166,서울특별시,중랑구,백다방,면목역점,127.08744866110901,37.588172267760896,서울특별시 중랑구 겸재로 178,서울 중랑,1,빽다방
167,서울특별시,서대문구,빽다방,명지대,126.925247994337,37.580319346900296,서울특별시 서대문구 거북골로 19,서울 서대문,1,빽다방
168,서울특별시,송파구,빽다방,-,127.11842366968,37.484759270549,서울특별시 송파구 법원로11길 11,서울 송파,1,빽다방
169,서울특별시,관악구,빽다방,신대방역점,126.91344555382,37.486322768667705,서울특별시 관악구 난곡로 363,서울 관악,1,빽다방
170,서울특별시,종로구,대학로흑백다방CAFE,-,127.000400639028,37.582051926401896,서울특별시 종로구 대학로11길 23,서울 종로,1,빽다방
171,인천광역시,중구,빽다방,인천차이나타운점,126.618971342011,37.47708439301579,인천광역시 중구 차이나타운로 24-2,인천 중구,1,빽다방
172,인천광역시,남동구,빽다방,구월아시아점,126.714374275956,37.443119818842,인천광역시 남동구 인하로 607,인천 남동,1,빽다방
173,인천광역시,남동구,빽다방,구월로데오점,126.70168263528,37.4457923076041,인천광역시 남동구 성말로 9,인천 남동,1,빽다방
174,인천광역시,중구,빽다방,인천신포시장점,126.62609012745399,37.4717342143018,인천광역시 중구 개항로 32,인천 중구,1,빽다방
175,인천광역시,남구,빽다방인천신기시장점,인천신기시장점,126.67692175419901,37.44837396727571,인천광역시 남구 인하로 259,인천 남구,1,빽다방
176,인천광역시,남동구,빽다방,인천모래내시장점,126.72028664348998,37.4556002832875,인천광역시 남동구 구월로 268,인천 남동,1,빽다방
177,광주광역시,광산구,빽다방,광주첨단로데오점,126.84367742458599,35.21499204890321,광주광역시 광산구 첨단중앙로106번길 11,광주 광산,1,빽다방
178,대전광역시,서구,빽다방,대전둔산향촌점,127.37538491873501,36.3521757723818,대전광역시 서구 둔산로 14,대전 서구,1,빽다방
179,대구광역시,서구,동백다방,-,128.567369411612,35.8757436644274,대구광역시 서구 문화로 318,대구 서구,1,빽다방
180,대구광역시,달서구,빽다방,대구월성원더풀점,128.524339185145,35.8243922111985,대구광역시 달서구 조암로 48,대구 달서,1,빽다방
181,인천광역시,연수구,빽다방,송도월드마크점,126.64670715354099,37.3934651703112,인천광역시 연수구 컨벤시아대로 116,인천 연수,1,빽다방
182,인천광역시,연수구,빽다방송도커낼워크점,송도커낼워크점,126.636899053684,37.39938945143809,인천광역시 연수구 아트센터대로 131,인천 연수,1,빽다방
183,대구광역시,달성군,빽다방,대구대실역점,128.46572733922,35.858631840989496,대구광역시 달성군 다사읍 대실역북로1길 9,대구 달성,1,빽다방
184,대전광역시,서구,빽다방,대전롯데점,127.38814369832899,36.3405615840631,대전광역시 서구 도솔로 382,대전 서구,1,빽다방
185,광주광역시,서구,빽다방,상무1호점,126.84781582771099,35.1568204753008,광주광역시 서구 치평로 106,광주 서구,1,빽다방
186,대전광역시,중구,빽다방,대전은행점,127.42733707567601,36.3279399841029,대전광역시 중구 중앙로156번길 24,대전 중구,1,빽다방
187,울산광역시,동구,빽다방,울산일산점,129.430313099236,35.497504476106,울산광역시 동구 일산진11길 23,울산 동구,1,빽다방
188,대구광역시,달서구,빽다방,대구도원골든점,128.535470817902,35.8075963714403,대구광역시 달서구 도원로 24,대구 달서,1,빽다방
189,인천광역시,남구,빽다방,주안역점,126.680697063593,37.4637787831324,인천광역시 남구 주안로 100,인천 남구,1,빽다방
190,대구광역시,달서구,빽다방,대구두류우체국점,128.552618060406,35.854982810936,대구광역시 달서구 달구벌대로344길 34,대구 달서,1,빽다방
191,인천광역시,남동구,빽다방,구월엔씨점,126.70155559021099,37.4439888391137,인천광역시 남동구 인하로 497-9,인천 남동,1,빽다방
192,인천광역시,서구,빽다방,-,126.652972995341,37.53343048534661,인천광역시 서구 청라라임로 65,인천 서구,1,빽다방
193,광주광역시,동구,빽다방,광주충장로점1호점,126.915110370877,35.1474994334624,광주광역시 동구 중앙로160번길 15-6,광주 동구,1,빽다방
194,대전광역시,유성구,백다방,-,127.319009927838,36.3725243110051,대전광역시 유성구 은구비남로33번길 5,대전 유성,1,빽다방
195,인천광역시,남동구,빽다방,-,126.735447491238,37.3975922134915,인천광역시 남동구 소래역남로 10,인천 남동,1,빽다방
196,인천광역시,남동구,빽다방,인천논현점,126.72482219528798,37.399460394205704,인천광역시 남동구 논고개로 93,인천 남동,1,빽다방
197,대전광역시,동구,동백다방,-,127.43105412265899,36.3314275634309,대전광역시 동구 태전로 6-2,대전 동구,1,빽다방
198,대전광역시,동구,빽다방,대전터미널서관점,127.43669956546302,36.3502454253977,대전광역시 동구 동서대로 1689,대전 동구,1,빽다방
199,대구광역시,북구,빽다방,대구칠곡점,128.55418017213302,35.9520657004991,대구광역시 북구 칠곡중앙대로 638,대구 북구,1,빽다방
200,울산광역시,남구,빽다방,울산공업탑점,129.308313332947,35.5312643718311,울산광역시 남구 두왕로 324,울산 남구,1,빽다방
201,대전광역시,유성구,빽다방,대전관평중점,127.38915921358802,36.4244185526288,대전광역시 유성구 테크노4로 115,대전 유성,1,빽다방
202,인천광역시,연수구,빽다방,연수점,126.67648668721901,37.413399887771796,인천광역시 연수구 먼우금로188번길 12,인천 연수,1,빽다방
203,인천광역시,남동구,빽다방,인천길병원점,126.709055404561,37.452766003252286,인천광역시 남동구 구월남로 174,인천 남동,1,빽다방
204,대전광역시,유성구,빽다방,리베라점,127.337787019886,36.3542534885766,대전광역시 유성구 계룡로 64,대전 유성,1,빽다방
205,대전광역시,서구,빽다방,대전시청역점,127.387254130729,36.3503085496506,대전광역시 서구 둔산중로 40,대전 서구,1,빽다방
206,인천광역시,계양구,빽다방,계양구청점,126.735805215834,37.538770377964894,인천광역시 계양구 계산새로 71,인천 계양,1,빽다방
207,대구광역시,수성구,빽다방,신매협화점,128.70696602933998,35.837499431569704,대구광역시 수성구 신매로 91,대구 수성,1,빽다방
208,대구광역시,달서구,빽다방,대구계명대점,128.493314217314,35.856061121034,대구광역시 달서구 서당로9길 39,대구 달서,1,빽다방
209,울산광역시,남구,빽다방,울산삼산점,129.337448773431,35.5401651507616,울산광역시 남구 삼산로277번길 8,울산 남구,1,빽다방
210,울산광역시,중구,빽다방울산여중점,울산여중점,129.33695346898898,35.5634693822173,울산광역시 중구 화합로 430,울산 중구,1,빽다방
211,대전광역시,대덕구,빽다방,대전한남대점,127.42508486368,36.3509922260651,대전광역시 대덕구 한남로 27,대전 대덕,1,빽다방
212,대전광역시,대덕구,빽다방,대전송촌공원점,127.439646568262,36.3649947263207,대전광역시 대덕구 송촌북로16번길 58,대전 대덕,1,빽다방
213,대전광역시,동구,빽다방가오CGV점,가오CGV점,127.455799210476,36.306496854017404,대전광역시 동구 은어송로 59,대전 동구,1,빽다방
214,인천광역시,남동구,빽다방,인천구월CGV점,126.70193047231001,37.4517238458032,인천광역시 남동구 예술로 198,인천 남동,1,빽다방
215,인천광역시,연수구,빽다방,글로벌1호점,126.65396824003,37.3783294841036,인천광역시 연수구 송도문화로28번길 28,인천 연수,1,빽다방
216,광주광역시,북구,빽다방,전남대후문점,126.91353208625601,35.1754103225278,광주광역시 북구 우치로90번길 16,광주 북구,1,빽다방
217,대구광역시,북구,빽다방,대구칠곡타운점,128.56334528422198,35.9439382670582,대구광역시 북구 학정로 439,대구 북구,1,빽다방
218,인천광역시,남동구,빽다방,인천간석올리브점,126.70810574021002,37.46066671445421,인천광역시 남동구 남동대로 875,인천 남동,1,빽다방
219,대전광역시,서구,빽다방,대전둔산중앙점,127.376357496638,36.350369342758896,대전광역시 서구 대덕대로185번길 22,대전 서구,1,빽다방
220,인천광역시,남동구,빽다방,인천논현역2호점,126.72306788931299,37.4016760513818,인천광역시 남동구 논고개로123번길 17,인천 남동,1,빽다방
221,인천광역시,남동구,빽다방,소래포구한화점,126.735173004781,37.3977965181041,인천광역시 남동구 소래역남로 12,인천 남동,1,빽다방
222,대전광역시,유성구,빽다방,대전노은CGV점,127.319009927838,36.3725243110051,대전광역시 유성구 은구비남로33번길 5,대전 유성,1,빽다방
223,인천광역시,남구,빽다방,인하대점,126.657442713899,37.452542299805295,인천광역시 남구 인하로77번길 29,인천 남구,1,빽다방
224,인천광역시,연수구,빽다방,인천송도점,126.650147910674,37.3949281435415,인천광역시 연수구 컨벤시아대로 81,인천 연수,1,빽다방
225,인천광역시,남동구,빽다방,인천남동초교점,126.736786251876,37.4436318091679,인천광역시 남동구 장승남로 41,인천 남동,1,빽다방
226,인천광역시,부평구,빽다방,부평로데오점,126.724283421741,37.4930994888734,인천광역시 부평구 부평대로20번길 18-1,인천 부평,1,빽다방
227,대구광역시,달서구,빽다방,대구성서롯데점,128.507785745972,35.8544415394555,대구광역시 달서구 성서로 414,대구 달서,1,빽다방
228,대구광역시,중구,빽다방,동성로2호점,128.595263337638,35.8679925189221,대구광역시 중구 동성로5길 11,대구 중구,1,빽다방
229,대전광역시,서구,빽다방,대전스타게이트점,127.378928588932,36.3619096920089,대전광역시 서구 대덕대로 325,대전 서구,1,빽다방
230,광주광역시,북구,빽다방전남대후문,-,126.91353208625601,35.1754103225278,광주광역시 북구 우치로90번길 16,광주 북구,1,빽다방
231,대전광역시,서구,빽다방,대전배재대점,127.37045280133002,36.322660985430396,대전광역시 서구 배재로 160,대전 서구,1,빽다방
232,대전광역시,유성구,빽다방,충남대후문점,127.34941412244899,36.3628791926385,대전광역시 유성구 궁동로18번길 37,대전 유성,1,빽다방
233,대전광역시,서구,빽다방,대전법원점,127.389007916073,36.3525706518097,대전광역시 서구 둔산로137번길 27,대전 서구,1,빽다방
234,대전광역시,중구,빽다방,대전중앙로지하점,127.424883932736,36.3283157455132,대전광역시 중구 중앙로 145,대전 중구,1,빽다방
235,대구광역시,중구,빽다방,대구반월당현대점,128.591369298118,35.867011281225096,대구광역시 중구 달구벌대로 2081-22,대구 중구,1,빽다방
236,광주광역시,동구,빽다방광주구시청점,광주구시청점,126.916804199862,35.1455585680059,광주광역시 동구 백서로125번길 45,광주 동구,1,빽다방
237,울산광역시,북구,빽다방,울산상안중앙점,129.34413580220502,35.629553796813504,울산광역시 북구 아진로 41-12,울산 북구,1,빽다방
238,인천광역시,남동구,빽다방인천간석올리브점,인천간석올리브점,126.707567103354,37.4624088311462,인천광역시 남동구 석산로141번길 44,인천 남동,1,빽다방
239,대전광역시,서구,빽다방대전관저중앙점,대전관저중앙점,127.33977712701099,36.2993062681105,대전광역시 서구 관저로 157,대전 서구,1,빽다방
240,울산광역시,중구,빽다방,울산성남점,129.319458991445,35.5540451939466,울산광역시 중구 젊음의거리 49,울산 중구,1,빽다방
241,대구광역시,동구,빽다방,대구율하광장점,128.695680621383,35.8634241363693,대구광역시 동구 안심로22길 40,대구 동구,1,빽다방
242,인천광역시,남동구,빽다방,NC점,126.70067382794,37.4440061791012,인천광역시 남동구 인하로 485,인천 남동,1,빽다방
243,대구광역시,북구,빽다방,칠곡에덴점,128.551206776966,35.932538918758205,대구광역시 북구 구암로 95,대구 북구,1,빽다방
244,대구광역시,북구,빽다방대구보건대점,대구보건대점,128.544486490877,35.9270535341583,대구광역시 북구 칠곡중앙대로69길 26,대구 북구,1,빽다방
245,울산광역시,남구,빽다방,울산삼산현대점,129.337451270759,35.5396513781776,울산광역시 남구 삼산로 277,울산 남구,1,빽다방
246,인천광역시,남동구,빽다방,-,126.727509042192,37.3975250632473,인천광역시 남동구 논고개로 61,인천 남동,1,빽다방
247,인천광역시,부평구,빽다방,-,126.70080679947701,37.4715973143106,인천광역시 부평구 열우물로 39,인천 부평,1,빽다방
248,대전광역시,동구,빽다방대전우송대점,대전우송대점,127.44738818236401,36.337046911539296,대전광역시 동구 동대전로 169,대전 동구,1,빽다방
249,대구광역시,북구,빽다방,대구북구서변점,128.598828404449,35.9208731643682,대구광역시 북구 호국로 215,대구 북구,1,빽다방
250,광주광역시,동구,빽다방광주충장로2호점,광주충장로2호점,126.918430335784,35.147898684124996,광주광역시 동구 금남로 246,광주 동구,1,빽다방
251,대구광역시,중구,빽다방,대구반월당지하점,128.593354331461,35.864432724458,대구광역시 중구 달구벌대로 2100,대구 중구,1,빽다방
252,대전광역시,중구,빽다방서대전홈플러스점,서대전홈플러스점,127.406805520845,36.3196564693977,대전광역시 중구 계백로1686번길 16,대전 중구,1,빽다방
253,인천광역시,서구,빽다방,가좌한신점,126.685337398373,37.493131996974704,인천광역시 서구 장고개로337번길 16,인천 서구,1,빽다방
254,울산광역시,남구,빽다방,울산대점,129.260100986071,35.5421699416044,울산광역시 남구 대학로76번길 7-11,울산 남구,1,빽다방
255,광주광역시,광산구,빽다방광주첨단점,광주첨단점,126.843739933218,35.219878090966795,광주광역시 광산구 첨단중앙로152번길 31-9,광주 광산,1,빽다방
256,인천광역시,남동구,빽다방,인천서창E편한점,126.750642508325,37.423830020381395,인천광역시 남동구 서창남로 48,인천 남동,1,빽다방
257,인천광역시,남동구,빽다방,인천간석벽산점,126.72053766133499,37.4647485156986,인천광역시 남동구 호구포로 921,인천 남동,1,빽다방
258,대전광역시,유성구,빽다방,전민중앙점,127.40252140153,36.3993685856352,대전광역시 유성구 유성대로 1740,대전 유성,1,빽다방
259,대전광역시,동구,빽다방대전역점대전역점,대전역점,127.43180595888398,36.3321972057211,대전광역시 동구 대전로815번길 3,대전 동구,1,빽다방
260,울산광역시,동구,빽다방,울산남목초교점,129.426620379451,35.5417028186835,울산광역시 동구 동해안로 28,울산 동구,1,빽다방
261,대전광역시,중구,빽다방,대전선병원점,127.41178439735701,36.3358675883064,대전광역시 중구 목중로 18,대전 중구,1,빽다방
262,인천광역시,남동구,빽다방,인천서창E편한점,126.750559844425,37.4240453971881,인천광역시 남동구 서창남로 50,인천 남동,1,빽다방
263,대전광역시,서구,빽다방,대전탄방로데오점,127.388857185121,36.34762202293,대전광역시 서구 둔산중로14번길 36,대전 서구,1,빽다방
264,대전광역시,중구,빽다방충남대병원점,충남대병원점,127.415153963701,36.3187332617667,대전광역시 중구 계룡로920번길 36,대전 중구,1,빽다방
265,세종특별자치시,세종특별자치시,빽다방,세종시정부청사점,127.262871705207,36.5074024888571,세종특별자치시 세종특별자치시 도움8로 11-11,세종,1,빽다방
266,인천광역시,서구,빽다방,인천신현하늘채점,126.673752792822,37.51770860432,인천광역시 서구 석곶로 2,인천 서구,1,빽다방
267,대전광역시,유성구,빽다방,서대전샘물타운점,127.319833098575,36.2996631299199,대전광역시 유성구 원내로 38,대전 유성,1,빽다방
268,대구광역시,중구,빽다방대구경대병원점,대구경대병원점,128.6042464101,35.8654149606098,대구광역시 중구 동덕로26길 18,대구 중구,1,빽다방
269,인천광역시,연수구,빽다방,-,126.667234123799,37.38794969324471,인천광역시 연수구 송도과학로27번길 70,인천 연수,1,빽다방
270,인천광역시,중구,빽다방,동인천역점,126.630527043161,37.4751555612816,인천광역시 중구 자유공원로 5,인천 중구,1,빽다방
271,대구광역시,달서구,빽다방대구신월성점,대구신월성점,128.526830456195,35.8245615847164,대구광역시 달서구 조암로 29,대구 달서,1,빽다방
272,인천광역시,연수구,빽다방송도캠퍼스타운점,송도캠퍼스타운점,126.66511116665001,37.389223244440004,인천광역시 연수구 송도과학로27번길 55,인천 연수,1,빽다방
273,광주광역시,서구,빽다방,광주상무메가점,126.85442685324301,35.1542060577564,광주광역시 서구 시청로60번길 21-6,광주 서구,1,빽다방
274,인천광역시,남구,빽다방,인하대역SK점,126.64504279314899,37.4520043181734,인천광역시 남구 용정공원로 33,인천 남구,1,빽다방
275,인천광역시,남구,빽다방인천용현토지점,인천용현토지점,126.63771361517901,37.451685786177286,인천광역시 남구 낙섬중로 40,인천 남구,1,빽다방
276,세종특별자치시,세종특별자치시,빽다방세종종촌농협점,세종종촌농협점,127.24964830588499,36.5045172633143,세종특별자치시 세종특별자치시 도움3로 105-7,세종,1,빽다방
277,인천광역시,계양구,빽다방,인천임학역점,126.73916828016701,37.5460145407835,인천광역시 계양구 장제로 885-1,인천 계양,1,빽다방
278,대구광역시,달성군,빽다방대구다사세천점,대구다사세천점,128.480260690559,35.874428988716005,대구광역시 달성군 다사읍 세천로 160,대구 달성,1,빽다방
279,대전광역시,서구,빽다방대전가수원중앙점,대전가수원중앙점,127.34950748696501,36.3047581145972,대전광역시 서구 계백로 1135,대전 서구,1,빽다방
280,대전광역시,중구,빽다방,대전유천버드내점,127.392389458464,36.3188540485425,대전광역시 중구 태평로 22-1,대전 중구,1,빽다방
281,인천광역시,서구,백다방,-,126.684395466213,37.4952569455385,인천광역시 서구 건지로 402,인천 서구,1,빽다방
282,인천광역시,강화군,빽다방,인천강화군청점,126.487356213765,37.7457788167245,인천광역시 강화군 강화읍 강화대로 396,인천 강화,1,빽다방
283,울산광역시,남구,빽다방,울산달동1호점,129.322101426409,35.5336106311806,울산광역시 남구 신정로17번길 6,울산 남구,1,빽다방
284,광주광역시,동구,신쭈꾸미빽다방,-,126.916804199862,35.1455585680059,광주광역시 동구 백서로125번길 45,광주 동구,1,빽다방
285,울산광역시,울주군,더본코리아_빽다방울산,범서구영점,129.24130614963698,35.5741272336001,울산광역시 울주군 범서읍 구영로 94,울산 울주,1,빽다방
286,대구광역시,동구,빽다방대구혁신,-,128.731386364404,35.8787056748269,대구광역시 동구 첨단로8길 10,대구 동구,1,빽다방
287,대전광역시,중구,빽다방,서대전홈플러스점,127.407702803638,36.320291796817706,대전광역시 중구 계백로 1690,대전 중구,1,빽다방
288,인천광역시,연수구,빽다방,연수동춘나사렛점,126.672010300804,37.40781730931021,인천광역시 연수구 앵고개로 256,인천 연수,1,빽다방
289,광주광역시,서구,빽다방,-,126.883142321581,35.16192863387,광주광역시 서구 죽봉대로 95,광주 서구,1,빽다방
290,인천광역시,서구,빽다방,청라쓰리엠점,126.650926772317,37.5320826276416,인천광역시 서구 중봉대로586번길 9-4,인천 서구,1,빽다방
291,인천광역시,계양구,빽다방,-,126.72263818210101,37.5266089924471,인천광역시 계양구 계양대로 32,인천 계양,1,빽다방
292,세종특별자치시,세종특별자치시,빽다방,-,127.261656116672,36.5013928529905,세종특별자치시 세종특별자치시 한누리대로 422,세종,1,빽다방
293,인천광역시,중구,빽다방,인천월미도점,126.59953713559099,37.474648113658795,인천광역시 중구 월미로 237,인천 중구,1,빽다방
294,경기도,부천시,빽다방부천심곡대성점,부천심곡대성점,126.784085909903,37.4914325368328,경기도 부천시 부천로 79,부천,1,빽다방
295,경기도,부천시,빽다방,부천상지초교점,126.76427144266,37.4929749355153,경기도 부천시 장말로199번길 6-4,부천,1,빽다방
296,경기도,안양시 동안구,빽다방,안양비산점,126.94377619705901,37.399204284892505,경기도 안양시 동안구 관악대로 177,안양 동안,1,빽다방
297,경기도,성남시 중원구,빽다방,단대오거리역점,127.155654663191,37.443915449348296,경기도 성남시 중원구 산성대로 354,성남 중원,1,빽다방
298,경기도,김포시,빽다방김포장기쌍용점,김포장기쌍용점,126.679619610658,37.6410151320518,경기도 김포시 김포한강2로23번길 50,김포,1,빽다방
299,경기도,부천시,빽다방,역곡점,126.81275720016701,37.48609266718921,경기도 부천시 부일로 748,부천,1,빽다방
300,강원도,원주시,빽다방,-,127.947781198558,37.3500059818461,강원도 원주시 무실로12번길 33,원주,1,빽다방
301,경기도,화성시,빽다방동탄은행사거리점,동탄은행사거리점,127.061867369068,37.2087463796896,경기도 화성시 동탄지성로 121,화성,1,빽다방
302,경기도,부천시,빽다방,송내역남부점,126.75279973222,37.48648406123571,경기도 부천시 송내대로 33,부천,1,빽다방
303,경기도,구리시,빽다방,구리돌다리점,127.140216724468,37.5997234088399,경기도 구리시 검배로6번길 27,구리,1,빽다방
304,경기도,화성시,빽다방,병점점,127.04005917400801,37.2129780300867,경기도 화성시 효행로 1028,화성,1,빽다방
305,경기도,수원시 장안구,빽다방,수원천천롯데점,126.98328299407,37.2963145120979,경기도 수원시 장안구 만석로19번길 25-3,수원 장안,1,빽다방
306,경기도,포천시,빽다방,포천송우중앙점,127.140603094569,37.830371874476796,경기도 포천시 소흘읍 송우로 80,포천,1,빽다방
307,경기도,이천시,빽다방,이천로데오점,127.444095797974,37.2805157355222,경기도 이천시 어재연로37번길 27,이천,1,빽다방
308,경기도,부천시,빽다방,부천중동현대점,126.760848055556,37.503057686491,경기도 부천시 석천로169번길 34,부천,1,빽다방
309,경기도,성남시 분당구,빽다방,미금역농협점,127.111720522244,37.3497103191204,경기도 성남시 분당구 돌마로90번길 4,성남 분당,1,빽다방
310,경기도,시흥시,빽다방,정왕역점,126.74184380934099,37.3513915152622,경기도 시흥시 마유로418번길 10,시흥,1,빽다방
311,경기도,화성시,빽다방,동탄북광장점,127.072694091828,37.205975137433796,경기도 화성시 동탄중심상가2길 5,화성,1,빽다방
312,경기도,성남시 분당구,빽다방,야탑역NC점,127.126810235007,37.41115913807121,경기도 성남시 분당구 야탑로75번길 15,성남 분당,1,빽다방
313,경기도,안양시 동안구,빽다방,평촌CGV점,126.96224933433001,37.3929702972725,경기도 안양시 동안구 관평로170번길 33,안양 동안,1,빽다방
314,경기도,안양시 만안구,빽다방,안양역점,126.92308718467,37.4006305596689,경기도 안양시 만안구 만안로 224,안양 만안,1,빽다방
315,경기도,고양시 일산서구,백다방,-,126.76212591762699,37.670561897444,경기도 고양시 일산서구 강성로 121,고양 일산서,1,빽다방
316,경기도,포천시,컴백다방,-,127.14735715167299,37.82785307526321,경기도 포천시 소흘읍 솔모루로78번길 8,포천,1,빽다방
317,경기도,평택시,빽다방,평택소사벌1호점,127.104167695061,37.0046099629836,경기도 평택시 평남로 941,평택,1,빽다방
318,경기도,파주시,빽다방,파주금릉역점,126.76686429866699,37.7519811388475,경기도 파주시 금빛로 24,파주,1,빽다방
319,경기도,안성시,빽다방,안성중앙로점,127.269158837978,37.00776812955,경기도 안성시 중앙로379번길 4,안성,1,빽다방
320,강원도,원주시,빽다방,원주장미공원점,127.931800565501,37.347339568721,강원도 원주시 장미공원길 32,원주,1,빽다방
321,경기도,안양시 동안구,빽다방,범계역점,126.953288571332,37.3908999607917,경기도 안양시 동안구 평촌대로223번길 42,안양 동안,1,빽다방
322,경기도,남양주시,빽다방,평내호평역점,127.24406506062701,37.655650518351,경기도 남양주시 늘을2로 32,남양주,1,빽다방
323,경기도,오산시,빽다방,오산역점,127.06996888652901,37.1461743881899,경기도 오산시 대원로 14,오산,1,빽다방
324,충청북도,청주시 상당구,빽다방,청주중앙공원점,127.48987281877399,36.6334351804115,충청북도 청주시 상당구 상당로59번길 13,청주 상당,1,빽다방
325,경기도,의정부시,빽다방,-,127.048473490129,37.7401298695735,경기도 의정부시 호국로1298번길 75,의정부,1,빽다방
326,경기도,안산시 단원구,빽다방,안산고잔뉴코아점,126.83423281744801,37.3189446933889,경기도 안산시 단원구 고잔로 72,안산 단원,1,빽다방
327,경기도,부천시,빽다방,송내법조타운점,126.75529104534999,37.4903487452381,경기도 부천시 부일로221번길 46,부천,1,빽다방
328,경기도,부천시,빽다방,상동세이브존점,126.75412001693,37.5063838048755,경기도 부천시 길주로 105,부천,1,빽다방
329,경기도,안양시 동안구,빽다방,범계역사거리점,126.950010336109,37.3911322057419,경기도 안양시 동안구 시민대로 171,안양 동안,1,빽다방
330,경기도,부천시,빽다방,송내역로데오점,126.75245955308901,37.491301004454,경기도 부천시 상일로 92,부천,1,빽다방
331,경기도,하남시,빽다방,하남신장시장점,127.204789506151,37.538066376766295,경기도 하남시 신장로 122,하남,1,빽다방
332,경기도,성남시 분당구,빽다방,분당서현대명점,127.124984247659,37.386528227323396,경기도 성남시 분당구 황새울로360번길 12,성남 분당,1,빽다방
333,경기도,용인시 기흥구,빽다방,강남대점,127.126131428473,37.2709903107511,경기도 용인시 기흥구 강남로 3,용인 기흥,1,빽다방
334,강원도,춘천시,빽다방,춘천석사CGV점,127.74483157673299,37.8511252984256,강원도 춘천시 지석로 85,춘천,1,빽다방
335,경기도,김포시,빽다방,김포사우점,126.717730697881,37.619549993380296,경기도 김포시 돌문로 50,김포,1,빽다방
336,경기도,안산시 단원구,빽다방,중앙역남부점,126.838680757235,37.3143659563463,경기도 안산시 단원구 광덕4로 234,안산 단원,1,빽다방
337,경기도,안산시 단원구,빽다방,안산초지풍림점,126.816655507229,37.30812862115551,경기도 안산시 단원구 광덕1로 64,안산 단원,1,빽다방
338,경기도,고양시 덕양구,빽다방,-,126.845532724869,37.61842788245861,경기도 고양시 덕양구 중앙로 450,고양 덕양,1,빽다방
339,강원도,강릉시,빽다방,강릉금학점,128.894954081206,37.7527998624499,강원도 강릉시 신대학길 14,강릉,1,빽다방
340,경기도,파주시,빽다방,문산시장점,126.78318894743,37.8574496236874,경기도 파주시 문산읍 문산로 35-3,파주,1,빽다방
341,경기도,용인시 수지구,빽다방수지구청점,수지구청점,127.097469385305,37.323876500743204,경기도 용인시 수지구 풍덕천로 144-1,용인 수지,1,빽다방
342,경기도,수원시 영통구,빽다방광교경기대후문점,광교경기대후문점,127.04427899394899,37.2999405363655,경기도 수원시 영통구 대학로 46,수원 영통,1,빽다방
343,경기도,시흥시,빽다방,시흥정왕옥구점,126.724411262395,37.3537187420046,경기도 시흥시 옥구상가2길 3,시흥,1,빽다방
344,경기도,고양시 일산서구,빽다방,일산후곡점,126.765693393568,37.6782758804995,경기도 고양시 일산서구 일산로 559,고양 일산서,1,빽다방
345,경기도,수원시 영통구,빽다방,광교월드스퀘어점,127.048361864893,37.2919087095505,경기도 수원시 영통구 센트럴타운로 107,수원 영통,1,빽다방
346,경기도,고양시 일산동구,빽다방,일산라페스타점,126.76786155826099,37.6630174358926,경기도 고양시 일산동구 무궁화로 31-2,고양 일산동,1,빽다방
347,경기도,용인시 기흥구,빽다방,-,127.112482093159,37.2811251998346,경기도 용인시 기흥구 관곡로64번길 18,용인 기흥,1,빽다방
348,경기도,의정부시,빽다방,의정부로데오점,127.04847418207198,37.7400758139353,경기도 의정부시 호국로1298번길 77,의정부,1,빽다방
349,경기도,구리시,빽다방,구리인창늘푸른점,127.142186788823,37.6046935027976,경기도 구리시 건원대로34번길 35,구리,1,빽다방
350,강원도,삼척시,빽다방,삼척대학로점,129.163076834853,37.4432811058981,강원도 삼척시 대학로 23-8,삼척,1,빽다방
351,경기도,남양주시,빽다방,남양주장현점,127.18086950741801,37.7176073931042,경기도 남양주시 진접읍 장현로 77,남양주,1,빽다방
352,경기도,부천시,빽다방,부천역CGV점,126.78136245040501,37.4857549699993,경기도 부천시 부일로460번길 5,부천,1,빽다방
353,경기도,안산시 단원구,빽다방,-,126.828975255345,37.3094946491179,경기도 안산시 단원구 광덕대로 145,안산 단원,1,빽다방
354,경기도,군포시,빽다방,산본중앙점,126.930352783622,37.359860223831504,경기도 군포시 산본로343번길 23,군포,1,빽다방
355,경기도,성남시 중원구,빽다방역점,-,127.155654663191,37.443915449348296,경기도 성남시 중원구 산성대로 354,성남 중원,1,빽다방
356,경기도,김포시,빽다방김포한강CGV점,김포한강CGV점,126.684155535897,37.6542925703564,경기도 김포시 김포한강11로 288-32,김포,1,빽다방
357,경기도,성남시 중원구,빽다방,모란역점,127.128695870766,37.4317085116434,경기도 성남시 중원구 성남대로 1141,성남 중원,1,빽다방
358,경기도,성남시 분당구,빽다방,수내역초림점,127.11249978605801,37.3774694629586,경기도 성남시 분당구 백현로101번길 17,성남 분당,1,빽다방
359,경기도,부천시,빽다방,신중동역점,126.77674249125401,37.5034936719449,경기도 부천시 길주로 307,부천,1,빽다방
360,경기도,안양시 동안구,빽다방,평촌역금강점,126.966124983447,37.39611292563061,경기도 안양시 동안구 시민대로 325,안양 동안,1,빽다방
361,경기도,김포시,빽다방김포장기쌍용점,김포장기쌍용점,126.678804609813,37.64224939475029,경기도 김포시 김포한강2로23번길 14,김포,1,빽다방
362,경기도,부천시,빽다방,상동역푸른마을점,126.753472678946,37.50450282783721,경기도 부천시 상동로 84,부천,1,빽다방
363,경기도,안양시 동안구,빽다방,인덕원역우정점,126.975378552355,37.4024648944546,경기도 안양시 동안구 관악대로 480,안양 동안,1,빽다방
364,충청북도,단양군,소백다방,-,128.353195780017,36.9221156209061,충청북도 단양군 대강면 대강로 64,단양,1,빽다방
365,경기도,수원시 장안구,연백다방,-,127.01212927079399,37.300172146349894,경기도 수원시 장안구 경수대로894번길 10,수원 장안,1,빽다방
366,경기도,고양시 일산동구,빽다방,일산동구청점,126.77311114669901,37.6567020093843,경기도 고양시 일산동구 정발산로 38,고양 일산동,1,빽다방
367,경기도,부천시,빽다방,부천원종중앙점,126.804401575335,37.52294190210979,경기도 부천시 소사로 747,부천,1,빽다방
368,경기도,안산시 상록구,빽다방,안산본오주공점,126.863006479639,37.3006986723234,경기도 안산시 상록구 샘골로 189,안산 상록,1,빽다방
369,강원도,원주시,빽다방,원주단구GS점,127.94867497082599,37.3303891369222,강원도 원주시 남원로534번길 20,원주,1,빽다방
370,강원도,춘천시,빽다방,강원대점,127.74491527683399,37.873002509237,강원도 춘천시 서부대성로239번길 4,춘천,1,빽다방
371,경기도,시흥시,빽다방,-,126.737550250821,37.344921254595604,경기도 시흥시 중심상가2길 22,시흥,1,빽다방
372,경기도,오산시,빽다방,오산시청점,127.076040794316,37.149501919860896,경기도 오산시 운암로 35,오산,1,빽다방
373,경기도,안양시 만안구,빽다방,안양1번가점,126.92187818498002,37.399087736373204,경기도 안양시 만안구 장내로139번길 35,안양 만안,1,빽다방
374,경기도,고양시 덕양구,빽다방,화정역점,126.83182347508301,37.6323849295384,경기도 고양시 덕양구 화신로272번길 34,고양 덕양,1,빽다방
375,경기도,안양시 동안구,빽다방,평촌역금강점,126.964668495517,37.3960821601934,경기도 안양시 동안구 시민대로 311,안양 동안,1,빽다방
376,경기도,안산시 단원구,빽다방,안산중앙역점,126.837702361526,37.3170955951917,경기도 안산시 단원구 중앙대로 907,안산 단원,1,빽다방
377,경기도,성남시 수정구,빽다방,동서울대점,127.126829102122,37.4591413184632,경기도 성남시 수정구 복정로72번길 4,성남 수정,1,빽다방
378,경기도,성남시 분당구,빽다방,정자카페점,127.106487401127,37.3703146775872,경기도 성남시 분당구 정자일로 230,성남 분당,1,빽다방
379,강원도,원주시,빽다방,원주중앙1호점,127.94793934118401,37.3498348403043,강원도 원주시 원일로115번길 6,원주,1,빽다방
380,경기도,부천시,빽다방,부천신중동점,126.772360869318,37.5017092174229,경기도 부천시 중동로254번길 64,부천,1,빽다방
381,경기도,안양시 동안구,빽다방,안양평촌학원가점,126.960443056051,37.3839257436309,경기도 안양시 동안구 평촌대로 130,안양 동안,1,빽다방
382,경기도,군포시,빽다방,산본역점,126.931945344424,37.3590005783845,경기도 군포시 산본로323번길 16-5,군포,1,빽다방
383,경기도,광명시,빽다방,광명철산점,126.869539891401,37.4757560182011,경기도 광명시 오리로856번길 25,광명,1,빽다방
384,경기도,수원시 팔달구,빽다방,수원인계중앙점,127.033406388255,37.2646016832815,경기도 수원시 팔달구 인계로166번길 48-21,수원 팔달,1,빽다방
385,강원도,삼척시,빽다방,삼척대학로점,129.163178666434,37.4432891142107,강원도 삼척시 대학로 23,삼척,1,빽다방
386,충청북도,청주시 서원구,빽다방,충북대중문점,127.458504105994,36.6339185797815,충청북도 청주시 서원구 내수동로 101,청주 서원,1,빽다방
387,경기도,광주시,빽다방,경기광주이마트점,127.26120641738399,37.4096334060733,경기도 광주시 광주대로 30,광주,1,빽다방
388,경기도,평택시,빽다방,평택소사벌1호점,127.105211753323,37.0037257155279,경기도 평택시 평남로 929,평택,1,빽다방
389,경기도,수원시 영통구,빽다방,수원삼성전자정문점,127.057396914835,37.25836132066621,경기도 수원시 영통구 삼성로 172-4,수원 영통,1,빽다방
390,충청북도,청주시 상당구,빽다방,청주성안롯데점,127.48949865893199,36.635911907779004,충청북도 청주시 상당구 성안로 13,청주 상당,1,빽다방
391,경기도,용인시 수지구,빽다방,광교상현신명점,127.069731159849,37.297665341683896,경기도 용인시 수지구 광교중앙로 310,용인 수지,1,빽다방
392,강원도,춘천시,빽다방,춘천명동점,127.72774545171002,37.877730500702704,강원도 춘천시 중앙로67번길 18,춘천,1,빽다방
393,충청북도,청주시 청원구,빽다방,오창호수공원점,127.42786323775199,36.7143068172903,충청북도 청주시 청원구 오창읍 중심상업1로 50,청주 청원,1,빽다방
394,충청북도,청주시 흥덕구,빽다방,청주가경골드점,127.442583596614,36.6164698249358,충청북도 청주시 흥덕구 가경로 9-22,청주 흥덕,1,빽다방
395,경기도,화성시,빽다방화성삼성점,화성삼성점,127.061650239356,37.223549726787894,경기도 화성시 효행로 1289,화성,1,빽다방
396,경기도,군포시,빽다방,금정역점,126.942444060312,37.3718270128242,경기도 군포시 산본천로226번길 1,군포,1,빽다방
397,경기도,용인시 기흥구,빽다방,용인죽전누리점,127.11035502415399,37.3200273231764,경기도 용인시 기흥구 죽전로 20,용인 기흥,1,빽다방
398,경기도,광명시,빽다방,광명사거리역점,126.853473691259,37.479502730663704,경기도 광명시 오리로 987,광명,1,빽다방
399,경기도,수원시 장안구,빽다방,수원장안CGV점,127.008040948127,37.30313855699001,경기도 수원시 장안구 경수대로 940,수원 장안,1,빽다방
400,경기도,수원시 영통구,빽다방,아주대점,127.04413813622,37.27719594786221,경기도 수원시 영통구 아주로 26-1,수원 영통,1,빽다방
401,경기도,용인시 처인구,빽다방용인롯데시네마점,용인롯데시네마점,127.206635725868,37.235666236623395,경기도 용인시 처인구 금령로 93,용인 처인,1,빽다방
402,강원도,동해시,빽다방동해천곡점,동해천곡점,129.115249607932,37.5222593064486,강원도 동해시 한섬로 111-7,동해,1,빽다방
403,경기도,수원시 장안구,빽다방,수원정자백설점,126.994135602258,37.2961459297248,경기도 수원시 장안구 정자천로173번길 17,수원 장안,1,빽다방
404,경기도,수원시 팔달구,빽다방,-,127.00165772353701,37.2654825975646,경기도 수원시 팔달구 덕영대로 931-1,수원 팔달,1,빽다방
405,경기도,시흥시,빽다방시흥월곶점,시흥월곶점,126.738603463253,37.388534357832,경기도 시흥시 월곶중앙로 59,시흥,1,빽다방
406,경기도,성남시 분당구,빽다방,야탑역대덕점,127.129837212323,37.412172637737896,경기도 성남시 분당구 성남대로926번길 6,성남 분당,1,빽다방
407,경기도,화성시,빽다방,화성수원대점,126.97766271989201,37.2139787675615,경기도 화성시 봉담읍 와우로 108,화성,1,빽다방
408,경기도,광주시,빽다방,광주태전점,127.231800612809,37.3932265178255,경기도 광주시 고불로 56,광주,1,빽다방
409,경기도,화성시,빽다방,동탄남광장점,127.07316431615601,37.2016084714533,경기도 화성시 메타폴리스로 54,화성,1,빽다방
410,경기도,용인시 수지구,빽다방광교상현신명점,광교상현신명점,127.069872006567,37.298135014417,경기도 용인시 수지구 광교중앙로 316,용인 수지,1,빽다방
411,경기도,성남시 분당구,빽다방,판교유스페이스점,127.106877533338,37.4002514151639,경기도 성남시 분당구 대왕판교로 660,성남 분당,1,빽다방
412,경기도,의정부시,빽다방,의정부센트럴점,127.044076338479,37.7379678834912,경기도 의정부시 시민로 80,의정부,1,빽다방
413,경기도,구리시,빽다방,구리인창늘푸른점,127.14276248032499,37.604859874209396,경기도 구리시 건원대로34번길 51,구리,1,빽다방
414,경기도,시흥시,빽다방시흥대야롯데점,시흥대야롯데점,126.791887458561,37.4416219197364,경기도 시흥시 비둘기공원7길 51,시흥,1,빽다방
415,경기도,파주시,빽다방,파주교하중앙점,126.718283004002,37.7251447321186,경기도 파주시 청석로 262,파주,1,빽다방
416,경기도,시흥시,빽다방시흥거모점,시흥거모점,126.78536045109101,37.344052225751,경기도 시흥시 군자로 517,시흥,1,빽다방
417,경기도,성남시 수정구,빽다방,성남가천대점,127.127134131161,37.4484569004601,경기도 성남시 수정구 성남대로 1330,성남 수정,1,빽다방
418,강원도,강릉시,빽다방강릉교동중앙점,강릉교동중앙점,128.87819831139,37.7666845115752,강원도 강릉시 솔올로 51,강릉,1,빽다방
419,경기도,수원시 팔달구,빽다방수원역점,수원역점,127.002234731855,37.267893366428794,경기도 수원시 팔달구 향교로 9-1,수원 팔달,1,빽다방
420,경기도,군포시,빽다방,-,126.94485652964799,37.3462852108419,경기도 군포시 고산로 248,군포,1,빽다방
421,경기도,용인시 기흥구,빽다방 용인기흥구청점,용인기흥구청점,127.112482093159,37.2811251998346,경기도 용인시 기흥구 관곡로64번길 18,용인 기흥,1,빽다방
422,강원도,홍천군,빽다방,홍천중앙점,127.88467907435499,37.6915626834471,강원도 홍천군 홍천읍 꽃뫼로 99,홍천,1,빽다방
423,경기도,용인시 기흥구,빽다방,흥덕이마트점,127.071577697461,37.27590050141411,경기도 용인시 기흥구 흥덕2로87번길 18,용인 기흥,1,빽다방
424,경기도,성남시 분당구,빽다방,미금역천사점,127.108299453743,37.350756869622295,경기도 성남시 분당구 성남대로 165,성남 분당,1,빽다방
425,경기도,화성시,빽다방,화성향남중앙점,126.92255949683201,37.1305715137339,경기도 화성시 향남읍 행정중앙2로 63-34,화성,1,빽다방
426,강원도,원주시,빽다방,-,127.948108472824,37.3500962370253,강원도 원주시 원일로 115,원주,1,빽다방
427,충청북도,청주시 흥덕구,빽다방,청주터미널점,127.433538296641,36.625790748491,충청북도 청주시 흥덕구 풍년로 148-1,청주 흥덕,1,빽다방
428,경기도,성남시 분당구,빽다방,분당정자엠코점,127.106336892176,37.36301479127879,경기도 성남시 분당구 정자일로 146,성남 분당,1,빽다방
429,경기도,의왕시,빽다방,의왕포일프라자점,126.98527536953199,37.3964139806959,경기도 의왕시 봇들로 40,의왕,1,빽다방
430,경기도,의정부시,빽다방,의정민락위드점,127.097651397442,37.74540014607071,경기도 의정부시 오목로205번길 22,의정부,1,빽다방
431,경기도,용인시 기흥구,빽다방,동백쥬네브점,127.153661963657,37.277371852882,경기도 용인시 기흥구 동백중앙로 283,용인 기흥,1,빽다방
432,경기도,화성시,빽다방,동탄솔빛나루점,127.072512708911,37.1931780568302,경기도 화성시 동탄중앙로 76,화성,1,빽다방
433,경기도,군포시,빽다방,군포당정삼거리점,126.955384050741,37.3481087011211,경기도 군포시 고산로151번길 7,군포,1,빽다방
434,경기도,성남시 수정구,빽다방,성남을지대점,127.16432756205,37.458718611146296,경기도 성남시 수정구 산성대로 535,성남 수정,1,빽다방
435,충청북도,청주시 서원구,빽다방청주산남점,청주산남점,127.466989872968,36.611381489463504,충청북도 청주시 서원구 산남로 64,청주 서원,1,빽다방
436,충청북도,증평군,동백다방,-,127.581523780131,36.783473153805296,충청북도 증평군 증평읍 중앙로6길 6-2,증평,1,빽다방
437,경기도,용인시 기흥구,빽다방,용인동백역점,127.154150844501,37.2699593175951,경기도 용인시 기흥구 동백중앙로 175,용인 기흥,1,빽다방
438,경기도,수원시 권선구,빽다방,수원권선이마트점,127.022913750709,37.2503504056181,경기도 수원시 권선구 덕영대로1201번길 28,수원 권선,1,빽다방
439,경기도,성남시 분당구,빽다방분당서현점,분당서현점,127.12141584722299,37.385555637575294,경기도 성남시 분당구 황새울로 325,성남 분당,1,빽다방
440,경기도,파주시,빽다방,파주운정산내점,126.73531053898998,37.729085807808296,경기도 파주시 청암로17번길 25,파주,1,빽다방
441,경기도,파주시,빽다방파주운정이마트점,파주운정이마트점,126.74582920299801,37.7121062229514,경기도 파주시 와석순환로 125,파주,1,빽다방
442,경기도,화성시,빽다방동탄영천한백점,동탄영천한백점,127.112649782612,37.2062631544509,경기도 화성시 지산2길 4-2,화성,1,빽다방
443,경기도,용인시 처인구,빽다방,용인롯데시네마점,127.206372062969,37.2350156736352,경기도 용인시 처인구 금령로90번길 3-4,용인 처인,1,빽다방
444,경기도,남양주시,빽다방,남양주덕소점,127.212009427531,37.5863663843955,경기도 남양주시 와부읍 덕소로 88,남양주,1,빽다방
445,경기도,의왕시,빽다방,의왕계원예대점,126.975799801259,37.378977716389606,경기도 의왕시 계원대학로 40,의왕,1,빽다방
446,경기도,김포시,빽다방김포구래점,김포구래점,126.626569531642,37.6447342239861,경기도 김포시 김포한강9로76번길 49,김포,1,빽다방
447,경기도,김포시,빽다방,김포구래점,126.626045880372,37.6442505958484,경기도 김포시 김포한강9로 80,김포,1,빽다방
448,경기도,군포시,빽다방,-,126.931739116387,37.3592149725256,경기도 군포시 산본로323번길 16-7,군포,1,빽다방
449,경기도,안양시 만안구,빽다방안양남부시장점,안양남부시장점,126.92360874947599,37.3957515511957,경기도 안양시 만안구 안양로 259,안양 만안,1,빽다방
450,경기도,성남시 분당구,빽다방,분당서현교보점,127.12133335941002,37.383915062008704,경기도 성남시 분당구 분당로53번길 9,성남 분당,1,빽다방
451,경기도,고양시 덕양구,빽다방,고양원흥역점,126.875522886086,37.6495595307778,경기도 고양시 덕양구 삼송로 12,고양 덕양,1,빽다방
452,경기도,부천시,빽다방부천약대점,부천약대점,126.77068501284701,37.5149369786474,경기도 부천시 평천로 718,부천,1,빽다방
453,경기도,고양시 덕양구,빽다방고양삼송신원점,고양삼송신원점,126.889416531587,37.6639813507772,경기도 고양시 덕양구 신원로 40-46,고양 덕양,1,빽다방
454,경기도,안양시 동안구,더본코리아_빽다방평촌,씨지브이점,126.96224933433001,37.3929702972725,경기도 안양시 동안구 관평로170번길 33,안양 동안,1,빽다방
455,경기도,화성시,더본코리아_빽다방동탄,은행사거리점,127.061867369068,37.2087463796896,경기도 화성시 동탄지성로 121,화성,1,빽다방
456,경기도,군포시,더본코리아_빽다방군포당정삼거리점,-,126.955384050741,37.3481087011211,경기도 군포시 고산로151번길 7,군포,1,빽다방
457,경기도,군포시,더본코리아_빽다방군포당정역,은하점,126.94485652964799,37.3462852108419,경기도 군포시 고산로 248,군포,1,빽다방
458,경기도,성남시 분당구,더본코리아_빽다방분당미금역,천사점,127.108299453743,37.350756869622295,경기도 성남시 분당구 성남대로 165,성남 분당,1,빽다방
459,경기도,파주시,빽다방,문산시장점,126.78329120383002,37.8574506804124,경기도 파주시 문산읍 문산로 37,파주,1,빽다방
460,경기도,용인시 수지구,더본코리아_빽다방상현역,광교점,127.069731159849,37.297665341683896,경기도 용인시 수지구 광교중앙로 310,용인 수지,1,빽다방
461,경기도,고양시 덕양구,빽다방,고양원당중앙점,126.837496419212,37.658029900064,경기도 고양시 덕양구 호국로 809,고양 덕양,1,빽다방
462,경기도,시흥시,백다방시흥,정왕옥구점,126.724411262395,37.3537187420046,경기도 시흥시 옥구상가2길 3,시흥,1,빽다방
463,경기도,안양시 만안구,빽다방,명학역점,126.933792675855,37.3848057829689,경기도 안양시 만안구 안양로 110,안양 만안,1,빽다방
464,경기도,고양시 일산서구,빽다방,일산주엽역점,126.76212591762699,37.670561897444,경기도 고양시 일산서구 강성로 121,고양 일산서,1,빽다방
465,강원도,춘천시,빽다방,춘천명동씨지브이점,127.72705855511101,37.8790444112726,강원도 춘천시 명동길 15-1,춘천,1,빽다방
466,경기도,평택시,빽다방평택로데오,-,127.089386025067,36.9919717136766,경기도 평택시 평택2로10번길 34,평택,1,빽다방
467,경기도,김포시,백다방김포한강,씨지브이점,126.684155535897,37.6542925703564,경기도 김포시 김포한강11로 288-32,김포,1,빽다방
468,경기도,고양시 덕양구,백다방화정,-,126.83182347508301,37.6323849295384,경기도 고양시 덕양구 화신로272번길 34,고양 덕양,1,빽다방
469,경기도,용인시 기흥구,빽다방용인죽전누리,-,127.11035502415399,37.3200273231764,경기도 용인시 기흥구 죽전로 20,용인 기흥,1,빽다방
470,경기도,평택시,빽다방,평택팽성점,127.063269900422,36.964256841414795,경기도 평택시 팽성읍 팽성송화로 219,평택,1,빽다방
471,경기도,수원시 팔달구,빽다방,수원인계CGV점,127.03193145846201,37.264445457667996,경기도 수원시 팔달구 효원로265번길 54,수원 팔달,1,빽다방
472,충청북도,청주시 서원구,빽다방,청주분평중앙점,127.489877599716,36.6072549613409,충청북도 청주시 서원구 1순환로1107번길 20,청주 서원,1,빽다방
473,경기도,용인시 기흥구,빽다방,용인구성역점,127.10727124933901,37.300297288921,경기도 용인시 기흥구 용구대로 2398,용인 기흥,1,빽다방
474,충청북도,충주시,빽다방,충주신연수리첼점,127.94157114387899,36.9868528392322,충청북도 충주시 번영대로 216,충주,1,빽다방
475,경기도,화성시,백다방,-,126.977483768428,37.2147161197413,경기도 화성시 봉담읍 와우안길 31,화성,1,빽다방
476,경기도,수원시 권선구,백다방수원권선웰빙점,수원권선웰빙점,127.017452765099,37.2585682182159,경기도 수원시 권선구 세지로 73,수원 권선,1,빽다방
477,경기도,오산시,빽다방,오산세교삼미점,127.06510695774999,37.1707814557021,경기도 오산시 오산대역로 210,오산,1,빽다방
478,경기도,안산시 단원구,빽다방,안산중앙역롯데점,126.83802957941201,37.31855853779479,경기도 안산시 단원구 고잔로 108,안산 단원,1,빽다방
479,경기도,김포시,빽다방,김포통진마송점,126.600752594394,37.689660728255795,경기도 김포시 통진읍 조강로 39,김포,1,빽다방
480,경기도,수원시 영통구,빽다방,광교법조타운점,127.068360173494,37.2926805503353,경기도 수원시 영통구 광교중앙로266번길 22,수원 영통,1,빽다방
481,경기도,화성시,빽다방,화성향남로데오점,126.913511920411,37.1163416293247,경기도 화성시 향남읍 상신하길로328번길 26,화성,1,빽다방
482,경기도,시흥시,빽다방,시흥배곧메가점,126.73017755529301,37.3692157936499,경기도 시흥시 서울대학로278번길 43-13,시흥,1,빽다방
483,경기도,화성시,빽다방,동탄중앙어울림점,127.11337744013399,37.1999158120248,경기도 화성시 동탄대로시범길 142,화성,1,빽다방
484,경기도,수원시 권선구,빽다방,수원탑동점,126.97449678566299,37.2688818159778,경기도 수원시 권선구 탑동로3번길 13,수원 권선,1,빽다방
485,경기도,양평군,빽다방,양평로데오점,127.49205277167201,37.490353420697,경기도 양평군 양평읍 양평시장길 14-3,양평,1,빽다방
486,전라북도,전주시 완산구,백다방전주객사점,전주객사점,127.14548808621099,35.8200919895598,전라북도 전주시 완산구 전주객사5길 44-2,전주 완산,1,빽다방
487,경상남도,통영시,빽다방,통영시립도서관점,128.425046460807,34.8608811956154,경상남도 통영시 무전3길 14,통영,1,빽다방
488,경상남도,창원시 마산회원구,송백다방,-,128.587677151057,35.2375938648049,경상남도 창원시 마산회원구 합성남3길 84-1,창원 마산회원,1,빽다방
489,전라북도,익산시,빽다방,원광대점,126.957380946049,35.96373281588021,전라북도 익산시 무왕로4길 4,익산,1,빽다방
490,제주특별자치도,서귀포시,빽다방,서귀포시청점,126.560752339293,33.253455518178804,제주특별자치도 서귀포시 중앙로 99,서귀포,1,빽다방
491,충청남도,논산시,빽다방,논산시청점,127.099375369911,36.18478380978271,충청남도 논산시 시민로194번길 10,논산,1,빽다방
492,전라남도,순천시,빽다방,순천신대1호점,127.544933638626,34.934945819773,전라남도 순천시 해룡면 좌야로 135,순천,1,빽다방
493,제주특별자치도,제주시,빽다방,제주대학로점,126.528255284918,33.4999125030726,제주특별자치도 제주시 광양8길 12-1,제주,1,빽다방
494,경상남도,거창군,동백다방,-,127.916178731824,35.691358075078,경상남도 거창군 거창읍 거열로 209,거창,1,빽다방
495,경상남도,창원시 성산구,빽다방,창원상남시장점,128.683652072571,35.2210086536282,경상남도 창원시 성산구 마디미로 39,창원 성산,1,빽다방
496,경상북도,경산시,빽다방,하양중앙점,128.816755715043,35.9115849613946,경상북도 경산시 하양읍 하양로 76,경산,1,빽다방
497,경상북도,포항시 북구,빽다방,포항죽도시장점,129.36528805232598,36.0359111401056,경상북도 포항시 북구 중앙로 256-3,포항 북구,1,빽다방
498,전라북도,전주시 덕진구,빽다방,전북대1호점,127.12862578511199,35.8430985522935,전라북도 전주시 덕진구 권삼득로 301,전주 덕진,1,빽다방
499,경상남도,진주시,빽다방,진주로데오점,128.082379817777,35.1947860360301,경상남도 진주시 촉석로186번길 6,진주,1,빽다방
500,경상남도,통영시,동백다방,-,128.43178509405598,34.840249588206504,경상남도 통영시 남망길 199,통영,1,빽다방
501,제주특별자치도,제주시,동백다방,-,126.26349464215599,33.4166896362357,제주특별자치도 제주시 한림읍 한림로17길 16,제주,1,빽다방
502,경상북도,안동시,빽다방,문화의거리점,128.73200266850202,36.56593189056579,경상북도 안동시 서동문로 184,안동,1,빽다방
503,경상남도,함양군,송백다방,-,127.69628067607799,35.6475223710177,경상남도 함양군 서하면 송계앞길 5,함양,1,빽다방
504,경상남도,창원시 의창구,빽다방,창원시티세븐점,128.6530455785,35.2398188564859,경상남도 창원시 의창구 창원천로94번길 19,창원 의창,1,빽다방
505,충청남도,아산시,빽다방,신용화점,127.00910167842,36.7737291107411,충청남도 아산시 용화고길55번길 21,아산,1,빽다방
506,제주특별자치도,제주시,빽다방,탐라도서관점,126.47803667808701,33.4800032149643,제주특별자치도 제주시 노형6길 27,제주,1,빽다방
507,충청남도,아산시,빽다방,아산터미널점,127.01478549209499,36.7847614713873,충청남도 아산시 번영로 217,아산,1,빽다방
508,전라북도,전주시 완산구,빽다방,전주혁신1호점,127.059509513444,35.8372508074142,전라북도 전주시 완산구 오공로 33-14,전주 완산,1,빽다방
509,전라북도,익산시,빽다방,익산영등제일점,126.97080391396798,35.95624189884521,전라북도 익산시 고봉로30길 4,익산,1,빽다방
510,경상북도,경산시,빽다방,경산영남대점,128.753216906705,35.836803859654005,경상북도 경산시 대학로 283-2,경산,1,빽다방
511,제주특별자치도,제주시,빽다방,제주노형뜨란채점,126.473413524408,33.4865728653174,제주특별자치도 제주시 수덕로 35,제주,1,빽다방
512,충청남도,공주시,빽다방,공주대점,127.13751987031799,36.472793650216296,충청남도 공주시 공주대학로 87,공주,1,빽다방
513,경상남도,밀양시,송백다방,-,128.881232814071,35.5862297166377,경상남도 밀양시 산내면 산내로 343,밀양,1,빽다방
514,전라북도,전주시 완산구,빽다방,전주서신롯데점,127.120229369274,35.8345831038309,전라북도 전주시 완산구 새터로 122-23,전주 완산,1,빽다방
515,제주특별자치도,서귀포시,빽다방,제주성산일출봉점,126.934934171004,33.4623305028499,제주특별자치도 서귀포시 성산읍 일출로 280-4,서귀포,1,빽다방
516,경상북도,구미시,빽다방,구미옥계삼구점,128.420786514066,36.1386274363725,경상북도 구미시 옥계북로 27,구미,1,빽다방
517,충청남도,천안시 동남구,빽다방,천안구성점,127.16067782548599,36.793080688472706,충청남도 천안시 동남구 충절로 292,천안 동남,1,빽다방
518,충청남도,서산시,백다방,서산예천점,126.44803078221001,36.7717333690901,충청남도 서산시 호수공원10로 7,서산,1,빽다방
519,경상북도,영주시,소백다방,-,128.626147201115,36.8240336802566,경상북도 영주시 번영로 142,영주,1,빽다방
520,경상남도,창원시 마산회원구,빽다방,창원합성1호점,128.584756131326,35.2378063230377,경상남도 창원시 마산회원구 합성남7길 6,창원 마산회원,1,빽다방
521,충청남도,천안시 서북구,천안두정중앙빽다방,-,127.13525819061,36.8335591583814,충청남도 천안시 서북구 두정로 166,천안 서북,1,빽다방
522,경상남도,남해군,태백다방,-,128.01289075355498,34.8549792817617,경상남도 남해군 창선면 옥천로 3,남해,1,빽다방
523,경상남도,진주시,빽다방,진주경상대1호점,128.10611029504,35.1522285348872,경상남도 진주시 진주대로516번길 6-1,진주,1,빽다방
524,전라남도,순천시,빽다방,순천중앙점,127.484303386383,34.9554913687246,전라남도 순천시 중앙7길 2,순천,1,빽다방
525,경상북도,영덕군,금백다방,-,129.408339519545,36.540044503719294,경상북도 영덕군 영해면 예주시장5길 26-45,영덕,1,빽다방
526,경상남도,김해시,빽다방,김해내외동점,128.866292191974,35.2343250195127,경상남도 김해시 내외중앙로 47,김해,1,빽다방
527,경상북도,안동시,빽다방,-,128.701565398971,36.5629606345863,경상북도 안동시 광명로 171-1,안동,1,빽다방
528,경상남도,함양군,송백다방,-,127.695132934799,35.6473301845124,경상남도 함양군 서하면 송계길 27,함양,1,빽다방
529,충청남도,아산시,빽다방,아산배방점,127.05522672893,36.774104357007104,충청남도 아산시 배방읍 모산로 112,아산,1,빽다방
530,제주특별자치도,제주시,빽다방,제주중앙여고점,126.54115300290199,33.4899493658316,제주특별자치도 제주시 남광로2길 43-13,제주,1,빽다방
531,전라남도,여수시,빽다방,여수여서점,127.70571898701,34.7532690622245,전라남도 여수시 여서1로 76,여수,1,빽다방
532,경상남도,창원시 마산합포구,빽다방,창원경남대점,128.55921193062798,35.180235997897604,경상남도 창원시 마산합포구 해안대로 2,창원 마산합포,1,빽다방
533,경상북도,경산시,빽다방경산하양중앙점,경산하양중앙점,128.816632740279,35.911477641507204,경상북도 경산시 하양읍 하양로 74,경산,1,빽다방
534,전라남도,여수시,빽다방,여수여천점,127.668022500829,34.7593654410888,전라남도 여수시 망마로 47,여수,1,빽다방
535,경상남도,양산시,빽다방양산터미널점,양산터미널점,129.02841729310302,35.336110539732104,경상남도 양산시 양산역4길 7,양산,1,빽다방
536,경상남도,통영시,빽다방,통영터미널점,128.418451272712,34.8845678866471,경상남도 통영시 광도면 죽림4로 37-11,통영,1,빽다방
537,충청남도,당진시,빽다방,당진문예의전당점,126.63898473652901,36.8908114219764,충청남도 당진시 시청1로 77,당진,1,빽다방
538,제주특별자치도,제주시,빽다방,제주제원점,126.489843389449,33.4871889112834,제주특별자치도 제주시 신광로 56,제주,1,빽다방
539,충청남도,천안시 서북구,빽다방천안두정중앙점,천안두정중앙점,127.13525819061,36.8335591583814,충청남도 천안시 서북구 두정로 166,천안 서북,1,빽다방
540,전라남도,목포시,빽다방,목포장미의거리점,126.42401031881901,34.8016833630994,전라남도 목포시 장미로 23,목포,1,빽다방
541,전라북도,전주시 완산구,빽다방전북도청타운점,전북도청타운점,127.108743954002,35.816436238212205,전라북도 전주시 완산구 홍산중앙로 33,전주 완산,1,빽다방
542,경상북도,경주시,빽다방,경주분황사점,129.23187056491992,35.8425214568643,경상북도 경주시 알천남로 314,경주,1,빽다방
543,경상남도,김해시,빽다방인제대점,인제대점,128.903691823904,35.24541816179121,경상남도 김해시 인제로 187,김해,1,빽다방
544,경상북도,구미시,빽다방,구미옥계삼구점,128.42077073985598,36.1398352192286,경상북도 구미시 옥계북로 33,구미,1,빽다방
545,충청남도,천안시 서북구,빽다방,천안쌍용이마트점,127.12843550795401,36.7955793412053,충청남도 천안시 서북구 충무로 196,천안 서북,1,빽다방
546,경상남도,거제시,빽다방거제고현터미널점,거제고현터미널점,128.62437151509,34.8902745001751,경상남도 거제시 서문로 79,거제,1,빽다방
547,경상북도,경주시,빽다방,경주로데오점,129.213334348854,35.843557253144496,경상북도 경주시 계림로 101,경주,1,빽다방
548,충청남도,천안시 서북구,빽다방,천안성정롯데점,127.140753046787,36.8253984148903,충청남도 천안시 서북구 서부3길 77,천안 서북,1,빽다방
549,전라북도,전주시 완산구,빽다방,전주객사1호점,127.145598646223,35.8201017885903,전라북도 전주시 완산구 전주객사5길 44-6,전주 완산,1,빽다방
550,충청남도,홍성군,빽다방,홍성로데오점,126.664297289619,36.601194859026705,충청남도 홍성군 홍성읍 아문길29번길 56,홍성,1,빽다방
551,경상북도,울진군,빽다방,울진후포점,129.445786566419,36.6790660120971,경상북도 울진군 후포면 후포로 38-1,울진,1,빽다방
552,경상남도,창원시 의창구,빽다방,창원시티세븐점,128.65442882741698,35.2396761736486,경상남도 창원시 의창구 원이대로 320,창원 의창,1,빽다방
553,경상북도,구미시,빽다방구미상모점,구미상모점,128.35494083170602,36.0893234993968,경상북도 구미시 상사서로 77,구미,1,빽다방
554,전라남도,여수시,빽다방여수웅천해변점,여수웅천해변점,127.67090245205601,34.7465629445408,전라남도 여수시 예울마루로 37-15,여수,1,빽다방
555,전라남도,순천시,백다방,조례주공점,127.518412060829,34.9608238151625,전라남도 순천시 신월큰길 32,순천,1,빽다방
556,경상남도,고성군,빽다방경남고성송학점,경남고성송학점,128.32460264942802,34.9775622011731,경상남도 고성군 고성읍 송학로 140,고성(경남),1,빽다방
557,경상남도,김해시,빽다방김해진영신도시점,김해진영신도시점,128.729815891181,35.3074993090333,경상남도 김해시 진영읍 김해대로361번길 8,김해,1,빽다방
558,전라남도,목포시,빽다방목포평화광장점,목포평화광장점,126.430568045648,34.7987394859263,전라남도 목포시 원형로 4-1,목포,1,빽다방
559,충청남도,천안시 동남구,빽다방,천안상명대점,127.177676709312,36.830706028038996,충청남도 천안시 동남구 각원사길 52,천안 동남,1,빽다방
560,충청남도,아산시,빽다방,온양온천역점,127.00289096578699,36.7818867893275,충청남도 아산시 온궁로 22-4,아산,1,빽다방
561,전라북도,전주시 완산구,빽다방전주대점,전주대점,127.090686755725,35.8171932977635,전라북도 전주시 완산구 백마산길 23,전주 완산,1,빽다방
562,경상북도,포항시 북구,빽다방,포항영일대점,129.37831667109398,36.0595725575721,경상북도 포항시 북구 삼호로 237,포항 북구,1,빽다방
563,제주특별자치도,서귀포시,빽다방베이커리앤,베이커리앤,126.406536772828,33.259508870753194,제주특별자치도 서귀포시 색달로 18,서귀포,1,빽다방
564,충청남도,서산시,빽다방,서산터미널점,126.459735295734,36.7818337197554,충청남도 서산시 율지8로 4,서산,1,빽다방
565,전라남도,광양시,빽다방,광양중마사랑점,127.696616576587,34.9361043564681,전라남도 광양시 공영로 67,광양,1,빽다방
566,충청남도,천안시 서북구,빽다방,천안두정역점,127.14699933078501,36.8332474614609,충청남도 천안시 서북구 두정로 271,천안 서북,1,빽다방
567,충청남도,천안시 동남구,빽다방,천안역점,127.148104654669,36.808374233136,충청남도 천안시 동남구 대흥로 228,천안 동남,1,빽다방
568,전라남도,무안군,빽다방,무안전남도청점,126.46176864088999,34.8126766612294,전라남도 무안군 삼향읍 남악3로82번길 14,무안,1,빽다방
569,전라북도,정읍시,빽다방정읍터미널점,정읍터미널점,126.846495862338,35.5723946032173,전라북도 정읍시 중앙로 41,정읍,1,빽다방
570,충청남도,당진시,빽다방당진읍내점,당진읍내점,126.63003718586701,36.8943040167607,충청남도 당진시 당진중앙2로 103-11,당진,1,빽다방
571,충청남도,당진시,빽다방,당진읍내점,126.62981220581499,36.894337466718895,충청남도 당진시 당진중앙1로 98,당진,1,빽다방
572,제주특별자치도,서귀포시,빽다방,호텔더본제주점,126.406536772828,33.259508870753194,제주특별자치도 서귀포시 색달로 18,서귀포,1,빽다방
573,전라북도,익산시,오백다방,-,126.96896562228001,35.945861407809,전라북도 익산시 선화로 354-1,익산,1,빽다방
574,경상남도,진주시,빽다방,진주과기대점,128.093475149387,35.179174057515304,경상남도 진주시 동진로 21,진주,1,빽다방
575,경상남도,창녕군,동백다방,-,128.47179453641598,35.6130449683639,경상남도 창녕군 대합면 창한로 106-1,창녕,1,빽다방
576,경상남도,통영시,더본코리아_빽다방통영,시립도서관점,128.425046460807,34.8608811956154,경상남도 통영시 무전3길 14,통영,1,빽다방
577,경상남도,거제시,더본코리아_빽다방거제고현,터미널점,128.62437151509,34.8902745001751,경상남도 거제시 서문로 79,거제,1,빽다방
578,경상남도,진주시,더본코리아_빽다방진주경상대,1호점,128.10611029504,35.1522285348872,경상남도 진주시 진주대로516번길 6-1,진주,1,빽다방
579,경상남도,고성군,더본코리아_빽다방경남,고성송학점,128.324591768372,34.9775802595891,경상남도 고성군 고성읍 송학로 140,고성(경남),1,빽다방
580,제주특별자치도,서귀포시,빽다방,제주성산일출봉점,126.934142899958,33.464577787888196,제주특별자치도 서귀포시 성산읍 성산등용로 4-4,서귀포,1,빽다방
581,전라북도,전주시 완산구,백다방전북도청타운점,-,127.108743954002,35.816436238212205,전라북도 전주시 완산구 홍산중앙로 33,전주 완산,1,빽다방
582,전라북도,전주시 덕진구,백다방전북대,1호점,127.12862578511199,35.8430985522935,전라북도 전주시 덕진구 권삼득로 301,전주 덕진,1,빽다방
583,경상남도,창원시 마산회원구,송백다방,-,128.586408369439,35.236860856449596,경상남도 창원시 마산회원구 합성남로 37,창원 마산회원,1,빽다방
584,경상남도,거창군,빽다방,경남거창중앙점,127.91184144548201,35.686812100855,경상남도 거창군 거창읍 중앙로 123,거창,1,빽다방
585,전라남도,목포시,빽다방,-,126.374393581474,34.806979666585804,전라남도 목포시 원산중앙로 10,목포,1,빽다방
586,충청남도,홍성군,빽다방,홍성내포중앙점,126.678985394715,36.6593657586177,충청남도 홍성군 홍북읍 청사로174번길 2,홍성,1,빽다방
587,충청남도,보령시,빽다방,보령중앙로점,126.595375544774,36.3505993722405,충청남도 보령시 중앙로 81,보령,1,빽다방
588,경상북도,예천군,빽다방,예천신도시점,128.48965577867799,36.5764470501342,경상북도 예천군 호명면 새움3로 26,예천,1,빽다방
589,제주특별자치도,서귀포시,빽다방,제주서귀포시청점,126.56056234591999,33.254571318024695,제주특별자치도 서귀포시 중앙로 111,서귀포,1,빽다방
