,시도명,시군구명,상호명,지점명,경도,위도,도로명주소,ID,스타벅스 매장수,브랜드명
0,서울특별시,용산구,스타벅스,이태원점,126.99478127566401,37.5343029422413,서울특별시 용산구 이태원로 188,서울 용산,1,스타벅스
1,서울특별시,종로구,스타벅스종로3가점,종로3가점,126.99020724045499,37.570585018689606,서울특별시 종로구 종로 113-1,서울 종로,1,스타벅스
2,서울특별시,서초구,스타벅스,신사2점,127.019762756075,37.5136626341355,서울특별시 서초구 강남대로 581,서울 서초,1,스타벅스
3,서울특별시,영등포구,스타벅스커피여의도IFC1F,커피여의도IFC1F점,126.924863083917,37.5251722235016,서울특별시 영등포구 국제금융로 10,서울 영등포,1,스타벅스
4,서울특별시,강남구,스타벅스,삼성역점,127.063878213052,37.5100378471739,서울특별시 강남구 테헤란로103길 9,서울 강남,1,스타벅스
5,서울특별시,관악구,스타벅스,신림포도몰점,126.930215862294,37.4838447505118,서울특별시 관악구 신림로 330,서울 관악,1,스타벅스
6,서울특별시,관악구,스타벅스신림사거리점,신림사거리점,126.930487328505,37.484631121894395,서울특별시 관악구 남부순환로 1619,서울 관악,1,스타벅스
7,서울특별시,강동구,스타벅스,-점,127.127021430163,37.538787576544706,서울특별시 강동구 천호대로157길 19,서울 강동,1,스타벅스
8,서울특별시,마포구,스타벅스커피홍대역,커피홍대역점,126.923599454067,37.5572017356505,서울특별시 마포구 양화로 165,서울 마포,1,스타벅스
9,서울특별시,강남구,스타벅스,신사역점,127.02063474001801,37.5161838031466,서울특별시 강남구 도산대로 108,서울 강남,1,스타벅스
10,서울특별시,영등포구,스타벅스,문래역점,126.89647871302,37.517449781640394,서울특별시 영등포구 당산로 34,서울 영등포,1,스타벅스
11,서울특별시,마포구,스타벅스,서강대점,126.937543279963,37.552426380667,서울특별시 마포구 백범로 23,서울 마포,1,스타벅스
12,서울특별시,종로구,스타벅스새문안로점,새문안로점,126.974868861844,37.5697229770514,서울특별시 종로구 새문안로 92,서울 종로,1,스타벅스
13,서울특별시,강서구,스타벅스,까치산역점,126.846035970796,37.532285335238704,서울특별시 강서구 강서로13길 3,서울 강서,1,스타벅스
14,서울특별시,송파구,스타벅스올림픽평화의문점,올림픽평화의문점,127.11631677592301,37.5157850739286,서울특별시 송파구 위례성대로 38,서울 송파,1,스타벅스
15,서울특별시,종로구,스타벅스,영풍문고점,126.982159843769,37.5696599190406,서울특별시 종로구 청계천로 41,서울 종로,1,스타벅스
16,서울특별시,은평구,스타벅스연신내역,연신내역점,126.92010980759501,37.61780044605271,서울특별시 은평구 연서로 216,서울 은평,1,스타벅스
17,서울특별시,강남구,스타벅스,코엑스몰점,127.057100286394,37.5129393969289,서울특별시 강남구 영동대로 513,서울 강남,1,스타벅스
18,서울특별시,서대문구,스타벅스연세백양로점,연세백양로점,126.94291681751601,37.5638006863037,서울특별시 서대문구 연세로 50,서울 서대문,1,스타벅스
19,서울특별시,송파구,스타벅스가락시장역점,가락시장역점,127.121533304074,37.4944057821458,서울특별시 송파구 중대로 121,서울 송파,1,스타벅스
20,서울특별시,동대문구,스타벅스외대점,외대점,127.061378960488,37.5957258221365,서울특별시 동대문구 휘경로 12-1,서울 동대문,1,스타벅스
21,서울특별시,동작구,스타벅스,보라매타운점,126.92335679189101,37.491423339167795,서울특별시 동작구 보라매로5길 43,서울 동작,1,스타벅스
22,서울특별시,영등포구,스타벅스,여의도일신점,126.92021918816499,37.527905068142,서울특별시 영등포구 은행로 11,서울 영등포,1,스타벅스
23,서울특별시,송파구,스타벅스석촌역,석촌역점,127.10601340660801,37.5042460725183,서울특별시 송파구 백제고분로 358,서울 송파,1,스타벅스
24,서울특별시,성북구,스타벅스,월곡역점,127.040441763055,37.6018196933437,서울특별시 성북구 화랑로 76,서울 성북,1,스타벅스
25,서울특별시,서초구,스타벅스,몬테소리점,127.02682889654498,37.4982589797032,서울특별시 서초구 강남대로 399,서울 서초,1,스타벅스
26,서울특별시,서대문구,스타벅스명지대점,명지대점,126.92232239793002,37.578283364060795,서울특별시 서대문구 거북골로 53,서울 서대문,1,스타벅스
27,서울특별시,강남구,스타벅스,한티역점,127.055213389641,37.496615204091,서울특별시 강남구 도곡로 408,서울 강남,1,스타벅스
28,서울특별시,강남구,스타벅스,청담공원점,127.05143962260401,37.518687851269,서울특별시 강남구 학동로 506,서울 강남,1,스타벅스
29,서울특별시,서초구,스타벅스,서초동점,127.021572760891,37.4859161526789,서울특별시 서초구 남부순환로339길 64,서울 서초,1,스타벅스
30,서울특별시,강남구,스타벅스압구정로데오역,압구정로데오역점,127.040513119755,37.5265378643378,서울특별시 강남구 선릉로 836,서울 강남,1,스타벅스
31,서울특별시,서대문구,스타벅스,이대이씨씨점,126.95030147676901,37.5642810556138,서울특별시 서대문구 이화여대길 52,서울 서대문,1,스타벅스
32,서울특별시,중구,스타벅스,순화동에이스점,126.969202890528,37.5635826036441,서울특별시 중구 통일로 92,서울 중구,1,스타벅스
33,부산광역시,해운대구,스타벅스,팔레드시즈점,129.16660481764401,35.1602158913492,부산광역시 해운대구 해운대해변로298번길 24,부산 해운대,1,스타벅스
34,서울특별시,서대문구,스타벅스,신촌대로점,126.93927795426599,37.5561993158556,서울특별시 서대문구 신촌로 121,서울 서대문,1,스타벅스
35,부산광역시,남구,스타벅스,-점,129.093067550223,35.1349506851431,부산광역시 남구 수영로 240-1,부산 남구,1,스타벅스
36,서울특별시,서대문구,스타벅스연대동문,연대동문점,126.946321109963,37.5664080915476,서울특별시 서대문구 성산로 565,서울 서대문,1,스타벅스
37,서울특별시,중구,스타벅스,문화일보점,126.968622139719,37.56711862235971,서울특별시 중구 새문안로 22,서울 중구,1,스타벅스
38,서울특별시,서초구,스타벅스강남삼성타운점,강남삼성타운점,127.027735014225,37.4955362431632,서울특별시 서초구 서초대로78길 24,서울 서초,1,스타벅스
39,서울특별시,관악구,스타벅스사당점,사당점,126.98100003205201,37.476049031304896,서울특별시 관악구 남부순환로 2082-25,서울 관악,1,스타벅스
40,서울특별시,용산구,스타벅스,순천향입구점,127.00563260758001,37.533412670302795,서울특별시 용산구 대사관로 67,서울 용산,1,스타벅스
41,서울특별시,관악구,스타벅스신림점,신림점,126.929154905595,37.4860877636316,서울특별시 관악구 신림로 355-1,서울 관악,1,스타벅스
42,서울특별시,강남구,스타벅스,강남구청역점,127.041239849867,37.51660515603879,서울특별시 강남구 선릉로 669,서울 강남,1,스타벅스
43,서울특별시,관악구,스타벅스서울대입구역점,서울대입구역점,126.95131919862499,37.4811055353469,서울특별시 관악구 남부순환로 1812,서울 관악,1,스타벅스
44,서울특별시,강서구,스타벅스,등촌점,126.844334259983,37.5582364999702,서울특별시 강서구 공항대로 329,서울 강서,1,스타벅스
45,서울특별시,광진구,스타벅스광장점,광장점,127.099644411941,37.542952126691105,서울특별시 광진구 아차산로 537-17,서울 광진,1,스타벅스
46,서울특별시,강서구,스타벅스,가양이마트점,126.861799100259,37.5581809080942,서울특별시 강서구 양천로 559,서울 강서,1,스타벅스
47,서울특별시,강남구,스타벅스,역삼초교사거리점,127.03300049334801,37.494128761553,서울특별시 강남구 역삼로 123,서울 강남,1,스타벅스
48,서울특별시,성북구,스타벅스,안암역점,127.030747660126,37.586098403696106,서울특별시 성북구 인촌로 102-2,서울 성북,1,스타벅스
49,서울특별시,광진구,스타벅스,구의디티점,127.087179393284,37.545298278221104,서울특별시 광진구 광나루로 519,서울 광진,1,스타벅스
50,서울특별시,영등포구,스타벅스,문래동점,126.889681386224,37.51965670105221,서울특별시 영등포구 선유로 64,서울 영등포,1,스타벅스
51,서울특별시,송파구,스타벅스,아시아선수촌점,127.07902912050501,37.510526383519,서울특별시 송파구 백제고분로 69,서울 송파,1,스타벅스
52,서울특별시,서대문구,스타벅스신촌명물거리점,신촌명물거리점,126.938123543095,37.557792789787705,서울특별시 서대문구 명물길 24,서울 서대문,1,스타벅스
53,서울특별시,중구,스타벅스명동미래,명동미래점,126.984532402493,37.5641659751905,서울특별시 중구 명동7길 8,서울 중구,1,스타벅스
54,서울특별시,중구,스타벅스,신당역점,127.01433114617399,37.56539165332121,서울특별시 중구 퇴계로 385,서울 중구,1,스타벅스
55,서울특별시,강남구,스타벅스,대치역점,127.06190405786,37.4933436201599,서울특별시 강남구 남부순환로 2936,서울 강남,1,스타벅스
56,서울특별시,광진구,스타벅스건국클래식점,건국클래식점,127.070902015585,37.538350363970004,서울특별시 광진구 능동로 90,서울 광진,1,스타벅스
57,서울특별시,중랑구,스타벅스,묵동이마트점,127.077541387095,37.61382904924471,서울특별시 중랑구 동일로 932,서울 중랑,1,스타벅스
58,서울특별시,서대문구,스타벅스연희DT점,연희DT점,126.933883655016,37.570188911496395,서울특별시 서대문구 연희로 144,서울 서대문,1,스타벅스
59,서울특별시,성북구,스타벅스삼선교점,삼선교점,127.007320332261,37.5887239609069,서울특별시 성북구 동소문로 10,서울 성북,1,스타벅스
60,서울특별시,종로구,스타벅스종각점,종각점,126.984521790682,37.5699505724323,서울특별시 종로구 종로 64,서울 종로,1,스타벅스
61,서울특별시,중구,스타벅스,남산단암점,126.975395770913,37.5585276043331,서울특별시 중구 소월로 10,서울 중구,1,스타벅스
62,서울특별시,서초구,스타벅스,내방역점,126.99245761598,37.4900145248382,서울특별시 서초구 방배로 184,서울 서초,1,스타벅스
63,서울특별시,성북구,스타벅스,고대안암병원점,127.031701809695,37.5884849860916,서울특별시 성북구 안암로 145,서울 성북,1,스타벅스
64,서울특별시,송파구,스타벅스,잠실역점,127.099535260634,37.51532493727071,서울특별시 송파구 송파대로 562,서울 송파,1,스타벅스
65,서울특별시,강동구,스타벅스올림픽공원북문점,올림픽공원북문점,127.12593214503599,37.5254709132425,서울특별시 강동구 강동대로 171,서울 강동,1,스타벅스
66,서울특별시,영등포구,스타벅스커피여의도호성,커피여의도호성점,126.92927506344101,37.5204367716676,서울특별시 영등포구 여의대방로65길 24,서울 영등포,1,스타벅스
67,서울특별시,서대문구,스타벅스충정타워,충정타워점,126.964069882556,37.5598884579046,서울특별시 서대문구 서소문로 21,서울 서대문,1,스타벅스
68,부산광역시,남구,스타벅스,BIFC몰점,129.065885085962,35.1465053091219,부산광역시 남구 문현금융로 40,부산 남구,1,스타벅스
69,서울특별시,서초구,스타벅스방배카페입구,방배카페입구점,126.985676893834,37.4972370082012,서울특별시 서초구 방배중앙로 204,서울 서초,1,스타벅스
70,서울특별시,서초구,스타벅스이수역점,이수역점,126.98268993664401,37.4864978042431,서울특별시 서초구 동작대로 112,서울 서초,1,스타벅스
71,서울특별시,강남구,스타벅스,삼성현대힐점,127.052704674305,37.5134718899824,서울특별시 강남구 삼성로 605,서울 강남,1,스타벅스
72,서울특별시,강남구,스타벅스,수서점,127.101842066177,37.488013362892396,서울특별시 강남구 밤고개로1길 10,서울 강남,1,스타벅스
73,부산광역시,수영구,스타벅스,남천점,129.114207648607,35.1483240681641,부산광역시 수영구 남천바다로 38,부산 수영,1,스타벅스
74,서울특별시,금천구,스타벅스W-MALL점,W-MALL점,126.88766254860799,37.4773156374838,서울특별시 금천구 디지털로 188,서울 금천,1,스타벅스
75,부산광역시,동래구,스타벅스,부산안락DT점,129.10688496437598,35.1959122197564,부산광역시 동래구 충렬대로 446,부산 동래,1,스타벅스
76,부산광역시,북구,스타벅스,부산화명역점,129.01321456748698,35.2336891168998,부산광역시 북구 금곡대로285번길 5,부산 북구,1,스타벅스
77,서울특별시,중구,스타벅스,을지로입구역점,126.983312623474,37.5656331860355,서울특별시 중구 을지로 50,서울 중구,1,스타벅스
78,서울특별시,강남구,스타벅스,서울세관사거리점,127.035741342646,37.5149114670439,서울특별시 강남구 언주로 650,서울 강남,1,스타벅스
79,부산광역시,금정구,스타벅스,부산대역점,129.088756366931,35.2305273611084,부산광역시 금정구 장전로12번길 64,부산 금정,1,스타벅스
80,부산광역시,동구,스타벅스,범일교차로점,129.063806565928,35.1377349832092,부산광역시 동구 조방로 4,부산 동구,1,스타벅스
81,서울특별시,종로구,스타벅스,북촌로점,126.98645348123699,37.579437112041,서울특별시 종로구 북촌로4길 23,서울 종로,1,스타벅스
82,서울특별시,강남구,스타벅스,역삼포스코점,127.03379242321199,37.4993703754632,서울특별시 강남구 테헤란로 134,서울 강남,1,스타벅스
83,서울특별시,용산구,스타벅스용산역점,용산역점,126.963222625326,37.527902979157,서울특별시 용산구 한강대로21나길 7,서울 용산,1,스타벅스
84,부산광역시,부산진구,스타벅스,서면전포역점,129.063616002244,35.1542952546818,부산광역시 부산진구 전포대로199번길 27,부산 부산진,1,스타벅스
85,서울특별시,마포구,스타벅스마포일진빌딩점,마포일진빌딩점,126.946358128038,37.5404674503959,서울특별시 마포구 마포대로 45,서울 마포,1,스타벅스
86,서울특별시,강동구,스타벅스천호로데오점,천호로데오점,127.12731542401,37.537834630463706,서울특별시 강동구 천호대로 1037,서울 강동,1,스타벅스
87,서울특별시,광진구,스타벅스,자양점,127.06915882226299,37.5356695214728,서울특별시 광진구 능동로 50,서울 광진,1,스타벅스
88,서울특별시,서초구,스타벅스,신논현역점,127.023626959081,37.5053148456229,서울특별시 서초구 강남대로 483,서울 서초,1,스타벅스
89,부산광역시,동래구,스타벅스,부산사직점,129.060561433144,35.1979853362218,부산광역시 동래구 사직북로 24,부산 동래,1,스타벅스
90,서울특별시,노원구,스타벅스중계역점,중계역점,127.06215871021001,37.6481544698442,서울특별시 노원구 동일로 1339,서울 노원,1,스타벅스
91,서울특별시,중구,스타벅스명동메트로,명동메트로점,126.983715734748,37.56512306293929,서울특별시 중구 명동9가길 14,서울 중구,1,스타벅스
92,부산광역시,중구,스타벅스,피프광장점,129.028040761744,35.0989679423748,부산광역시 중구 비프광장로 25,부산 중구,1,스타벅스
93,서울특별시,강북구,스타벅스,수유역점,127.026107842176,37.638023076730704,서울특별시 강북구 도봉로 342,서울 강북,1,스타벅스
94,서울특별시,서대문구,스타벅스,신촌아트레온점,126.94031422834,37.5565510166296,서울특별시 서대문구 신촌로 129,서울 서대문,1,스타벅스
95,서울특별시,서초구,스타벅스,서래마을입구점,126.998542320991,37.4992570081851,서울특별시 서초구 서래로 48,서울 서초,1,스타벅스
96,서울특별시,동대문구,스타벅스,장한평역점,127.065476564871,37.562347565345995,서울특별시 동대문구 장한로 10,서울 동대문,1,스타벅스
97,서울특별시,강남구,스타벅스,한솔빌딩점,127.034941231236,37.49974018840009,서울특별시 강남구 테헤란로 142,서울 강남,1,스타벅스
98,서울특별시,서초구,스타벅스,서울아트센터점,127.012347140463,37.4806673259512,서울특별시 서초구 남부순환로 2395,서울 서초,1,스타벅스
99,서울특별시,마포구,스타벅스마포아크로타워점,마포아크로타워점,126.949139204869,37.5414563490381,서울특별시 마포구 마포대로 68,서울 마포,1,스타벅스
100,서울특별시,종로구,스타벅스,대명거리점,127.001139623548,37.58351786796671,서울특별시 종로구 대명길 5,서울 종로,1,스타벅스
101,부산광역시,북구,스타벅스,부산덕천역점,129.008502470617,35.2106799840775,부산광역시 북구 만덕대로 30,부산 북구,1,스타벅스
102,부산광역시,사하구,스타벅스,부산괴정역점,128.994252485597,35.098402408862704,부산광역시 사하구 사하로186번길 6,부산 사하,1,스타벅스
103,부산광역시,해운대구,스타벅스,해운대이마트점,129.167401483699,35.1660401471884,부산광역시 해운대구 좌동순환로 511,부산 해운대,1,스타벅스
104,서울특별시,서초구,스타벅스남부터미널2점,남부터미널2점,127.014197798445,37.4843861241449,서울특별시 서초구 효령로 274,서울 서초,1,스타벅스
105,서울특별시,종로구,스타벅스,동숭로아트점,127.00388696534999,37.5829644184897,서울특별시 종로구 동숭길 110,서울 종로,1,스타벅스
106,서울특별시,구로구,스타벅스구로디지털로점,구로디지털로점,126.89549862342399,37.4856968115932,서울특별시 구로구 디지털로33길 11,서울 구로,1,스타벅스
107,서울특별시,서초구,스타벅스,파미에파크점,127.007826111215,37.504480361962706,서울특별시 서초구 사평대로 205,서울 서초,1,스타벅스
108,서울특별시,강남구,스타벅스,가로수길점,127.021629292234,37.5231842055575,서울특별시 강남구 논현로175길 94,서울 강남,1,스타벅스
109,서울특별시,영등포구,스타벅스,당산점,126.899952047656,37.5351335863576,서울특별시 영등포구 양평로 64,서울 영등포,1,스타벅스
110,서울특별시,강남구,스타벅스,청담점,127.051571721037,37.52433851643779,서울특별시 강남구 도산대로 532,서울 강남,1,스타벅스
111,서울특별시,서초구,스타벅스,뉴코아강남점,127.006957982903,37.5102488124166,서울특별시 서초구 잠원로 69,서울 서초,1,스타벅스
112,서울특별시,중랑구,스타벅스중랑구청점,중랑구청점,127.095653136278,37.605400319519,서울특별시 중랑구 신내로 72,서울 중랑,1,스타벅스
113,서울특별시,강서구,스타벅스,발산역점,126.839290175551,37.5601782971845,서울특별시 강서구 강서로 388,서울 강서,1,스타벅스
114,서울특별시,종로구,스타벅스종로관수점,종로관수점,126.98865644043,37.569742784871,서울특별시 종로구 삼일대로20길 13,서울 종로,1,스타벅스
115,서울특별시,강남구,스타벅스,포이점,127.045116281379,37.4778100339866,서울특별시 강남구 논현로 88,서울 강남,1,스타벅스
116,서울특별시,강남구,스타벅스논현힐탑,논현힐탑점,127.032255003449,37.5115850987019,서울특별시 강남구 논현로 648,서울 강남,1,스타벅스
117,부산광역시,부산진구,스타벅스부산서면,부산서면점,129.061572243583,35.1541148726858,부산광역시 부산진구 중앙대로692번길 46-10,부산 부산진,1,스타벅스
118,서울특별시,강남구,스타벅스삼성도심공항점,삼성도심공항점,127.057908690998,37.5098191857712,서울특별시 강남구 테헤란로87길 33,서울 강남,1,스타벅스
119,부산광역시,부산진구,스타벅스,서면트레이더스점,129.05350264406601,35.1641186549401,부산광역시 부산진구 새싹로 81,부산 부산진,1,스타벅스
120,서울특별시,용산구,스타벅스,이태원입구점,126.98924122654199,37.5339943503067,서울특별시 용산구 이태원로 138-1,서울 용산,1,스타벅스
121,부산광역시,부산진구,스타벅스,서면서전로점,129.061929762609,35.1579787122775,부산광역시 부산진구 서전로 19,부산 부산진,1,스타벅스
122,서울특별시,광진구,스타벅스,군자역점,127.079012895356,37.5569305034381,서울특별시 광진구 천호대로 548,서울 광진,1,스타벅스
123,서울특별시,영등포구,스타벅스,여의도의사당점,126.92104776983601,37.530075143753294,서울특별시 영등포구 국회대로74길 12,서울 영등포,1,스타벅스
124,부산광역시,중구,스타벅스,광복중앙로점,129.031126982977,35.101916365280296,부산광역시 중구 광복중앙로 28-1,부산 중구,1,스타벅스
125,서울특별시,종로구,스타벅스종로2가점,종로2가점,126.98733102125799,37.570650485064796,서울특별시 종로구 삼일대로 403-1,서울 종로,1,스타벅스
126,서울특별시,강남구,스타벅스선정릉역점,선정릉역점,127.044549435311,37.5107751239617,서울특별시 강남구 봉은사로 407,서울 강남,1,스타벅스
127,서울특별시,강남구,스타벅스,학동역점,127.03074553868099,37.514600260375204,서울특별시 강남구 논현로 704,서울 강남,1,스타벅스
128,서울특별시,노원구,스타벅스,은행사거리점,127.07597743114201,37.6504980859283,서울특별시 노원구 중계로 217,서울 노원,1,스타벅스
129,서울특별시,강남구,스타벅스선릉로점,선릉로점,127.04671604196899,37.504953793129296,서울특별시 강남구 선릉로93길 22,서울 강남,1,스타벅스
130,서울특별시,중구,스타벅스명동역,명동역점,126.983083260827,37.5608556864363,서울특별시 중구 퇴계로 101,서울 중구,1,스타벅스
131,서울특별시,동작구,스타벅스,사당역점,126.98135149187901,37.4784758997485,서울특별시 동작구 동작대로 21,서울 동작,1,스타벅스
132,서울특별시,강남구,스타벅스,포스코점,127.057925714358,37.505764570423295,서울특별시 강남구 삼성로86길 7,서울 강남,1,스타벅스
133,서울특별시,강북구,스타벅스미아역점,미아역점,127.026557543462,37.626133124926,서울특별시 강북구 도봉로 196,서울 강북,1,스타벅스
134,서울특별시,금천구,스타벅스,마리오아울렛점,126.88506813730899,37.47843551394,서울특별시 금천구 벚꽃로 266,서울 금천,1,스타벅스
135,서울특별시,성북구,스타벅스,고대점,127.029688991151,37.58391819363,서울특별시 성북구 인촌로24길 51,서울 성북,1,스타벅스
136,서울특별시,노원구,스타벅스,노원역점,127.060001689909,37.654759905279604,서울특별시 노원구 동일로 1413,서울 노원,1,스타벅스
137,서울특별시,중구,스타벅스,서울시청점,126.979941681875,37.5662979098695,서울특별시 중구 을지로 19,서울 중구,1,스타벅스
138,서울특별시,종로구,스타벅스,상명아트홀점,127.002715512416,37.5833599952328,서울특별시 종로구 동숭길 133,서울 종로,1,스타벅스
139,서울특별시,강남구,스타벅스역삼럭키,역삼럭키점,127.039391664754,37.492225610599704,서울특별시 강남구 도곡로 183,서울 강남,1,스타벅스
140,서울특별시,구로구,스타벅스커피신도림디큐브시티B2,커피신도림디큐브시티B2점,126.888484621418,37.508058038284105,서울특별시 구로구 경인로 662,서울 구로,1,스타벅스
141,서울특별시,용산구,스타벅스이태원거리점,이태원거리점,126.99757784334,37.53501151039261,서울특별시 용산구 이태원로 213,서울 용산,1,스타벅스
142,서울특별시,강남구,스타벅스,지에스타워점,127.037277378321,37.5018857412981,서울특별시 강남구 논현로 508,서울 강남,1,스타벅스
143,서울특별시,구로구,스타벅스구로에이스트윈타워1점,구로에이스트윈타워1점,126.89448759134501,37.4844799519315,서울특별시 구로구 디지털로 285,서울 구로,1,스타벅스
144,부산광역시,연제구,스타벅스,연산중앙로점,129.08067749081698,35.185431465132,부산광역시 연제구 중앙대로 1091,부산 연제,1,스타벅스
145,부산광역시,연제구,스타벅스,부산연산역점,129.08334393401898,35.186967040359896,부산광역시 연제구 반송로 20,부산 연제,1,스타벅스
146,서울특별시,중구,스타벅스을지로입구,을지로입구점,126.98321208809901,37.567200132973,서울특별시 중구 남대문로10길 9,서울 중구,1,스타벅스
147,서울특별시,서초구,스타벅스교대역점,교대역점,127.01395530164,37.4942326373696,서울특별시 서초구 서초중앙로 138,서울 서초,1,스타벅스
148,서울특별시,중구,스타벅스,서소문점,126.975510103913,37.563403234147295,서울특별시 중구 서소문로 130,서울 중구,1,스타벅스
149,부산광역시,중구,스타벅스,부산중앙역점,129.035939326781,35.105165459591106,부산광역시 중구 중앙대로81번길 2,부산 중구,1,스타벅스
150,부산광역시,사하구,스타벅스,부산동아대점,128.964921349219,35.1130529132018,부산광역시 사하구 낙동대로550번길 14,부산 사하,1,스타벅스
151,서울특별시,동대문구,스타벅스,회기역사거리점,127.056016389771,37.590844453232,서울특별시 동대문구 이문로 37,서울 동대문,1,스타벅스
152,서울특별시,중구,스타벅스서울중앙우체국점,서울중앙우체국점,126.982156500678,37.561586555079,서울특별시 중구 소공로 70,서울 중구,1,스타벅스
153,서울특별시,구로구,스타벅스구로하이엔드점,구로하이엔드점,126.89346712375,37.4816050678561,서울특별시 구로구 디지털로26길 5,서울 구로,1,스타벅스
154,서울특별시,서초구,스타벅스,논현역점,127.02062762815201,37.511534314154396,서울특별시 서초구 강남대로 557,서울 서초,1,스타벅스
155,서울특별시,중구,스타벅스남산스테이트,남산스테이트점,126.982911122996,37.5601964424547,서울특별시 중구 퇴계로 100,서울 중구,1,스타벅스
156,서울특별시,양천구,스타벅스목동점,목동점,126.87853714619499,37.5363828248169,서울특별시 양천구 목동서로 67,서울 양천,1,스타벅스
157,서울특별시,강남구,스타벅스삼성교점,삼성교점,127.06517279917101,37.5078134808243,서울특별시 강남구 영동대로86길 12,서울 강남,1,스타벅스
158,서울특별시,중구,스타벅스조선호텔후문,조선호텔후문점,126.980757256014,37.5637640159767,서울특별시 중구 남대문로7길 19,서울 중구,1,스타벅스
159,서울특별시,성동구,스타벅스,왕십리역점,127.03388010250099,37.5627419871963,서울특별시 성동구 왕십리로 326,서울 성동,1,스타벅스
160,서울특별시,강동구,스타벅스명일이마트점,명일이마트점,127.155987402893,37.5540007430118,서울특별시 강동구 동남로75길 5,서울 강동,1,스타벅스
161,서울특별시,용산구,스타벅스,동부이촌동점,126.96905272236299,37.5210700185566,서울특별시 용산구 이촌로 198,서울 용산,1,스타벅스
162,서울특별시,강남구,스타벅스커리학동사거리점,커리학동사거리점,127.03795294353701,37.5223902189029,서울특별시 강남구 도산대로 328,서울 강남,1,스타벅스
163,서울특별시,영등포구,스타벅스,여의도한양증권점,126.929088635937,37.5223993583573,서울특별시 영등포구 국제금융로6길 7,서울 영등포,1,스타벅스
164,서울특별시,서초구,스타벅스서울교대점,서울교대점,127.015152866623,37.4874306484335,서울특별시 서초구 서초중앙로 64,서울 서초,1,스타벅스
165,부산광역시,부산진구,스타벅스,부산서면중앙로점,129.058933915872,35.1554810356709,부산광역시 부산진구 중앙대로 701,부산 부산진,1,스타벅스
166,서울특별시,서초구,스타벅스,교대점,127.014217033954,37.492387659064704,서울특별시 서초구 서초중앙로 118,서울 서초,1,스타벅스
167,서울특별시,강남구,스타벅스,선릉역점,127.048515927976,37.5039411013992,서울특별시 강남구 테헤란로 334,서울 강남,1,스타벅스
168,서울특별시,서초구,스타벅스,서초중앙로점,127.011539185408,37.5016551524635,서울특별시 서초구 서초중앙로 225,서울 서초,1,스타벅스
169,서울특별시,영등포구,스타벅스,-점,126.903914224263,37.517212666105706,서울특별시 영등포구 영중로 15,서울 영등포,1,스타벅스
170,서울특별시,종로구,스타벅스,서울극장점,126.99164569051099,37.5696872619054,서울특별시 종로구 돈화문로 13,서울 종로,1,스타벅스
171,서울특별시,강북구,스타벅스강북구청사거리점,강북구청사거리점,127.02732798436001,37.64003343807929,서울특별시 강북구 도봉로 365,서울 강북,1,스타벅스
172,부산광역시,부산진구,스타벅스,양정역점,129.069277594677,35.1701008815796,부산광역시 부산진구 중앙대로 894,부산 부산진,1,스타벅스
173,서울특별시,강남구,스타벅스청담사거리점,청담사거리점,127.046850137088,37.523759873683204,서울특별시 강남구 도산대로 458,서울 강남,1,스타벅스
174,서울특별시,종로구,스타벅스,종로관철점,126.98598268804301,37.5690710988316,서울특별시 종로구 종로12길 21,서울 종로,1,스타벅스
175,서울특별시,송파구,스타벅스방이역점,방이역점,127.12663853234301,37.5085452424071,서울특별시 송파구 마천로 53,서울 송파,1,스타벅스
176,서울특별시,광진구,스타벅스강변역점,강변역점,127.09257856655898,37.5358608133798,서울특별시 광진구 구의강변로 64,서울 광진,1,스타벅스
177,서울특별시,서초구,스타벅스서초파라곤점,서초파라곤점,127.027403494967,37.494938817542,서울특별시 서초구 서초대로74길 29,서울 서초,1,스타벅스
178,서울특별시,종로구,스타벅스종로평창,종로평창점,126.966763285432,37.60579292442,서울특별시 종로구 평창문화로 51,서울 종로,1,스타벅스
179,서울특별시,강남구,스타벅스,압구정역2점,127.02789685336398,37.5240469060232,서울특별시 강남구 논현로 841,서울 강남,1,스타벅스
180,서울특별시,강동구,스타벅스,천호이마트점,127.12519757952101,37.538963301202,서울특별시 강동구 천호대로 1015-14,서울 강동,1,스타벅스
181,부산광역시,연제구,스타벅스,부산교대점,129.077497589889,35.1957265804807,부산광역시 연제구 교대로 20-2,부산 연제,1,스타벅스
182,서울특별시,중구,스타벅스명동중앙로,명동중앙로점,126.98573772021099,37.5637618569889,서울특별시 중구 명동길 60,서울 중구,1,스타벅스
183,서울특별시,강남구,스타벅스신압구정점,신압구정점,127.036420025086,37.5281084112342,서울특별시 강남구 언주로174길 29,서울 강남,1,스타벅스
184,부산광역시,금정구,스타벅스,부산대정문점,129.084581127286,35.2321242300263,부산광역시 금정구 부산대학로64번길 12,부산 금정,1,스타벅스
185,서울특별시,서초구,스타벅스,양재역점,127.03685006085699,37.48232031678671,서울특별시 서초구 강남대로 202,서울 서초,1,스타벅스
186,서울특별시,송파구,스타벅스올림픽공원남문점,올림픽공원남문점,127.122996982138,37.5133299197545,서울특별시 송파구 위례성대로 102,서울 송파,1,스타벅스
187,서울특별시,중구,스타벅스,서소문로점,126.974644933829,37.5629361919446,서울특별시 중구 서소문로 120,서울 중구,1,스타벅스
188,서울특별시,용산구,스타벅스,서울역동자동점,126.972909348137,37.551667085451896,서울특별시 용산구 한강대로 372,서울 용산,1,스타벅스
189,서울특별시,종로구,스타벅스광화문역점,광화문역점,126.978892919429,37.5709832679583,서울특별시 종로구 종로3길 17,서울 종로,1,스타벅스
190,부산광역시,금정구,스타벅스,부산외대점,129.084752652172,35.2639773430004,부산광역시 금정구 금샘로 459,부산 금정,1,스타벅스
191,서울특별시,서초구,스타벅스,강남II점,127.025481611828,37.5001130565393,서울특별시 서초구 서초대로77길 27,서울 서초,1,스타벅스
192,서울특별시,서대문구,스타벅스,연대점,126.936695631183,37.5587170195711,서울특별시 서대문구 연세로 35,서울 서대문,1,스타벅스
193,서울특별시,영등포구,스타벅스,여의도알리안츠점,126.927827696628,37.518810771131896,서울특별시 영등포구 의사당대로 147,서울 영등포,1,스타벅스
194,부산광역시,동구,스타벅스,부산역점,129.04083096793198,35.1163460024434,부산광역시 동구 중앙대로 216,부산 동구,1,스타벅스
195,서울특별시,중구,스타벅스서소문배재,서소문배재점,126.972166856166,37.562878601942,서울특별시 중구 서소문로 99,서울 중구,1,스타벅스
196,부산광역시,사하구,스타벅스,하단중앙점,128.966072638306,35.10649952124739,부산광역시 사하구 낙동남로 1411,부산 사하,1,스타벅스
197,서울특별시,성동구,스타벅스,이마트본사점,127.05347904535299,37.5399239940305,서울특별시 성동구 뚝섬로 377,서울 성동,1,스타벅스
198,서울특별시,서초구,스타벅스,방배역점,126.99763090593399,37.4819850802876,서울특별시 서초구 방배로 84,서울 서초,1,스타벅스
199,서울특별시,종로구,스타벅스,이마빌딩점,126.978966379844,37.5738942645562,서울특별시 종로구 종로1길 42,서울 종로,1,스타벅스
200,서울특별시,종로구,스타벅스경복궁역,경복궁역점,126.972615705273,37.5771730114202,서울특별시 종로구 자하문로4길 6,서울 종로,1,스타벅스
201,서울특별시,영등포구,스타벅스여의도점,여의도점,126.92448295062799,37.524069489011104,서울특별시 영등포구 국제금융로2길 28,서울 영등포,1,스타벅스
202,서울특별시,종로구,스타벅스세종로점,세종로점,126.986427620709,37.569651586387,서울특별시 종로구 삼일대로19길 20,서울 종로,1,스타벅스
203,서울특별시,강동구,스타벅스,천호역점,127.124132813668,37.538090395314896,서울특별시 강동구 천호대로 1012,서울 강동,1,스타벅스
204,서울특별시,금천구,스타벅스커피가산그레이트,커피가산그레이트점,126.887266473346,37.4796276001816,서울특별시 금천구 디지털로9길 32,서울 금천,1,스타벅스
205,부산광역시,해운대구,스타벅스,제니스스퀘어점,129.144841326609,35.1572236013279,부산광역시 해운대구 마린시티2로 33,부산 해운대,1,스타벅스
206,부산광역시,해운대구,스타벅스,신세계마린시티점,129.143357288326,35.1570573391424,부산광역시 해운대구 마린시티2로 38,부산 해운대,1,스타벅스
207,서울특별시,중구,스타벅스을지로센타,을지로센타점,126.984890874694,37.5669442676094,서울특별시 중구 을지로5길 16,서울 중구,1,스타벅스
208,서울특별시,강남구,스타벅스차병원사거리,차병원사거리점,127.035354656802,37.5080422802738,서울특별시 강남구 봉은사로 213,서울 강남,1,스타벅스
209,서울특별시,송파구,스타벅스,갤러리아팰리스점,127.094467266876,37.510663766936496,서울특별시 송파구 올림픽로 212,서울 송파,1,스타벅스
210,서울특별시,중구,스타벅스,SKTTOWER점,126.98511227932501,37.5664776293738,서울특별시 중구 을지로 65,서울 중구,1,스타벅스
211,서울특별시,서대문구,스타벅스,경기대점,126.964616455685,37.563740698234895,서울특별시 서대문구 충정로 53,서울 서대문,1,스타벅스
212,서울특별시,서초구,스타벅스예술의전당점,예술의전당점,127.013483063726,37.4811273444246,서울특별시 서초구 남부순환로323길 1,서울 서초,1,스타벅스
213,서울특별시,중랑구,스타벅스중랑역점,중랑역점,127.074728919101,37.5930740403772,서울특별시 중랑구 망우로30길 3,서울 중랑,1,스타벅스
214,서울특별시,중랑구,스타벅스상봉역점,상봉역점,127.086458400452,37.596931775537,서울특별시 중랑구 망우로 307,서울 중랑,1,스타벅스
215,서울특별시,강남구,스타벅스학여울점,학여울점,127.068507100293,37.4979912661689,서울특별시 강남구 영동대로 215,서울 강남,1,스타벅스
216,서울특별시,광진구,스타벅스,건대스타씨티점,127.072944230258,37.5369968145663,서울특별시 광진구 아차산로 262,서울 광진,1,스타벅스
217,서울특별시,서초구,스타벅스사당로데오점,사당로데오점,126.982147054224,37.477338416297606,서울특별시 서초구 방배천로 5-4,서울 서초,1,스타벅스
218,서울특별시,광진구,스타벅스,구의역점,127.08401043594,37.537002075804786,서울특별시 광진구 아차산로 373,서울 광진,1,스타벅스
219,부산광역시,서구,스타벅스,부산송도비치점,129.016614121195,35.076150538042,부산광역시 서구 송도해변로 81,부산 서구,1,스타벅스
220,서울특별시,은평구,스타벅스구파발역점,구파발역점,126.91852318601102,37.6342747302578,서울특별시 은평구 진관2로 12,서울 은평,1,스타벅스
221,부산광역시,기장군,스타벅스,부산정관점,129.177196603733,35.3213861959829,부산광역시 기장군 정관읍 정관로 579,부산 기장,1,스타벅스
222,서울특별시,송파구,스타벅스신천역점,신천역점,127.081200820667,37.5114533637489,서울특별시 송파구 올림픽로 96,서울 송파,1,스타벅스
223,부산광역시,금정구,스타벅스금정이마트점,금정이마트점,129.090709288601,35.2500336085006,부산광역시 금정구 중앙대로1841번길 24,부산 금정,1,스타벅스
224,서울특별시,용산구,스타벅스숙대입구역점,숙대입구역점,126.971925105405,37.5442249085445,서울특별시 용산구 한강대로 291,서울 용산,1,스타벅스
225,서울특별시,은평구,스타벅스,은평구청입구점,126.92664807468,37.6010828997358,서울특별시 은평구 은평로 170,서울 은평,1,스타벅스
226,부산광역시,해운대구,스타벅스,좌동블루스퀘어점,129.175636324032,35.172297199015695,부산광역시 해운대구 좌동로 96,부산 해운대,1,스타벅스
227,서울특별시,관악구,스타벅스,보라매대교점,126.925522181434,37.491037581936,서울특별시 관악구 보라매로3길 23,서울 관악,1,스타벅스
228,부산광역시,부산진구,스타벅스서면중앙점,서면중앙점,129.05810710213498,35.1568944317952,부산광역시 부산진구 서면로68번길 1,부산 부산진,1,스타벅스
229,서울특별시,구로구,스타벅스커피신도림디큐브시티2F,커피신도림디큐브시티2F점,126.888484621418,37.508058038284105,서울특별시 구로구 경인로 662,서울 구로,1,스타벅스
230,부산광역시,부산진구,스타벅스서면센트럴스퀘어점,서면센트럴스퀘어점,129.060324769688,35.1518633004325,부산광역시 부산진구 중앙대로666번길 50,부산 부산진,1,스타벅스
231,서울특별시,강남구,스타벅스,-점,127.03053663487499,37.4948924865489,서울특별시 강남구 강남대로78길 14,서울 강남,1,스타벅스
232,서울특별시,송파구,스타벅스가든파이브,가든파이브점,127.119370608348,37.4782606521025,서울특별시 송파구 충민로 10,서울 송파,1,스타벅스
233,부산광역시,해운대구,스타벅스,베네시티점,129.150748800901,35.158186196302,부산광역시 해운대구 해운대해변로 163,부산 해운대,1,스타벅스
234,부산광역시,부산진구,스타벅스,서면메디컬거리점,129.05741873197098,35.157982112702,부산광역시 부산진구 가야대로 783-1,부산 부산진,1,스타벅스
235,서울특별시,금천구,스타벅스커피가산브이타워,커피가산브이타워점,126.88368419181002,37.477224052987296,서울특별시 금천구 가산디지털1로 128,서울 금천,1,스타벅스
236,서울특별시,서대문구,스타벅스동교삼거리점,동교삼거리점,126.927345295972,37.5588126454804,서울특별시 서대문구 신촌로 1,서울 서대문,1,스타벅스
237,서울특별시,강남구,스타벅스차병원사거리점,차병원사거리점,127.035354656802,37.5080422802738,서울특별시 강남구 봉은사로 213,서울 강남,1,스타벅스
238,서울특별시,강남구,스타벅스,큰길타워점,127.04065256742399,37.502390759891895,서울특별시 강남구 테헤란로 223,서울 강남,1,스타벅스
239,서울특별시,성북구,스타벅스,종암점,127.034276237521,37.6013098726705,서울특별시 성북구 종암로28길 40,서울 성북,1,스타벅스
240,서울특별시,강남구,스타벅스뱅뱅사거리점,뱅뱅사거리점,127.032473020123,37.4885559134485,서울특별시 강남구 강남대로 282,서울 강남,1,스타벅스
241,부산광역시,해운대구,스타벅스센텀신세계B1,센텀신세계B1점,129.129106584707,35.1686565992762,부산광역시 해운대구 센텀남대로 35,부산 해운대,1,스타벅스
242,서울특별시,송파구,스타벅스,가락본동점,127.118768373869,37.4948807737535,서울특별시 송파구 송파대로30길 13,서울 송파,1,스타벅스
243,서울특별시,중구,스타벅스,충무로역점,126.99390762123899,37.5614259780878,서울특별시 중구 퇴계로 197,서울 중구,1,스타벅스
244,서울특별시,강남구,스타벅스경복아파트점,경복아파트점,127.04035282204599,37.50902008937421,서울특별시 강남구 봉은사로 304,서울 강남,1,스타벅스
245,서울특별시,강남구,스타벅스,강남대로점,127.025555471117,37.5031321984073,서울특별시 강남구 강남대로 456,서울 강남,1,스타벅스
246,서울특별시,마포구,스타벅스,상암MBC점,126.890965756325,37.5811104968407,서울특별시 마포구 성암로 267,서울 마포,1,스타벅스
247,서울특별시,성북구,스타벅스,현대미아점,127.028725560472,37.6083915431599,서울특별시 성북구 동소문로 315,서울 성북,1,스타벅스
248,서울특별시,강남구,스타벅스,역삼대로점,127.03922281909901,37.5018745487421,서울특별시 강남구 테헤란로 211,서울 강남,1,스타벅스
249,서울특별시,송파구,스타벅스석촌서호점,석촌서호점,127.09661166466199,37.50636411799979,서울특별시 송파구 석촌호수로 176,서울 송파,1,스타벅스
250,서울특별시,마포구,스타벅스동교점,동교점,126.91999426097,37.5568354275046,서울특별시 마포구 월드컵북로 22,서울 마포,1,스타벅스
251,부산광역시,부산진구,스타벅스,부산개금역점,129.022616147254,35.152872492408,부산광역시 부산진구 가야대로 462-1,부산 부산진,1,스타벅스
252,서울특별시,서초구,스타벅스,남부터미널점,127.0169304208,37.484670199789,서울특별시 서초구 서초중앙로 26,서울 서초,1,스타벅스
253,서울특별시,강동구,스타벅스투,투점,127.127021430163,37.538787576544706,서울특별시 강동구 천호대로157길 19,서울 강동,1,스타벅스
254,부산광역시,수영구,스타벅스,광안리점,129.120873725565,35.1550590422778,부산광역시 수영구 광안해변로 247,부산 수영,1,스타벅스
255,서울특별시,노원구,스타벅스월계이마트점,월계이마트점,127.061966366957,37.6265010290164,서울특별시 노원구 마들로3길 15,서울 노원,1,스타벅스
256,서울특별시,은평구,스타벅스,은평이마트점,126.920491206786,37.600819505627605,서울특별시 은평구 은평로 111,서울 은평,1,스타벅스
257,서울특별시,송파구,스타벅스잠실점,잠실점,127.103446561974,37.5174361339672,서울특별시 송파구 올림픽로35가길 9,서울 송파,1,스타벅스
258,부산광역시,해운대구,스타벅스,벡스코점,129.13603906341,35.1690785295441,부산광역시 해운대구 APEC로 55,부산 해운대,1,스타벅스
259,서울특별시,강동구,스타벅스길동사거리점,길동사거리점,127.138395512206,37.5346811988164,서울특별시 강동구 양재대로 1441,서울 강동,1,스타벅스
260,서울특별시,서초구,스타벅스,영동2교점,127.04257559708799,37.481988408185295,서울특별시 서초구 논현로 139,서울 서초,1,스타벅스
261,서울특별시,양천구,스타벅스오목교역점,오목교역점,126.876766269365,37.5239406644723,서울특별시 양천구 오목로 354,서울 양천,1,스타벅스
262,서울특별시,강남구,스타벅스,압구정2점,127.03471675846201,37.5268330299984,서울특별시 강남구 압구정로42길 32,서울 강남,1,스타벅스
263,서울특별시,노원구,스타벅스노원케이티점,노원케이티점,127.063825860056,37.6543668305308,서울특별시 노원구 노해로 502,서울 노원,1,스타벅스
264,부산광역시,해운대구,스타벅스센텀그린타워점,센텀그린타워점,129.12702668665702,35.1746431258659,부산광역시 해운대구 센텀중앙로 78,부산 해운대,1,스타벅스
265,서울특별시,중구,스타벅스,무교동점,126.978972751429,37.5676230751955,서울특별시 중구 무교로 19,서울 중구,1,스타벅스
266,서울특별시,중랑구,스타벅스,사가정역점,127.08796056733401,37.5796252940301,서울특별시 중랑구 면목로 310,서울 중랑,1,스타벅스
267,서울특별시,금천구,스타벅스금천독산점,금천독산점,126.895609328207,37.4689563671665,서울특별시 금천구 두산로 70,서울 금천,1,스타벅스
268,부산광역시,해운대구,스타벅스,장산역점,129.176689134256,35.1691772216307,부산광역시 해운대구 해운대로 802,부산 해운대,1,스타벅스
269,서울특별시,중구,스타벅스,올리브타워점,126.97298024232501,37.5613448991997,서울특별시 중구 세종대로9길 41,서울 중구,1,스타벅스
270,서울특별시,금천구,스타벅스가산디지털단지점,가산디지털단지점,126.882626013373,37.4799532337125,서울특별시 금천구 가산디지털1로 168,서울 금천,1,스타벅스
271,서울특별시,중구,스타벅스,태평로점,126.976779068076,37.562486166009705,서울특별시 중구 세종대로 72,서울 중구,1,스타벅스
272,서울특별시,구로구,스타벅스,신도림테크노마트점,126.89020763235001,37.507038039776894,서울특별시 구로구 새말로 97,서울 구로,1,스타벅스
273,서울특별시,강남구,스타벅스,기술센터점,127.04376206975901,37.503335049003795,서울특별시 강남구 테헤란로 305,서울 강남,1,스타벅스
274,서울특별시,도봉구,스타벅스,쌍문역점,127.034868675382,37.6483488366145,서울특별시 도봉구 도봉로 480,서울 도봉,1,스타벅스
275,서울특별시,마포구,스타벅스,망원역점,126.91070635656601,37.5557679688127,서울특별시 마포구 월드컵로 74,서울 마포,1,스타벅스
276,서울특별시,서초구,스타벅스,뉴코아반포점,127.007423858098,37.5092345394587,서울특별시 서초구 잠원로 51,서울 서초,1,스타벅스
277,서울특별시,중구,스타벅스,명동메트로점,126.983715734748,37.56512306293929,서울특별시 중구 명동9가길 14,서울 중구,1,스타벅스
278,서울특별시,종로구,스타벅스,평창점,126.966763285432,37.60579292442,서울특별시 종로구 평창문화로 51,서울 종로,1,스타벅스
279,서울특별시,중구,스타벅스,새명동점,126.98387242031099,37.561087741844396,서울특별시 중구 명동8나길 19,서울 중구,1,스타벅스
280,서울특별시,용산구,스타벅스숙대점,숙대점,126.967303679485,37.544544998587604,서울특별시 용산구 청파로47가길 7-11,서울 용산,1,스타벅스
281,서울특별시,중구,스타벅스서소문배재점,서소문배재점,126.972166856166,37.562878601942,서울특별시 중구 서소문로 99,서울 중구,1,스타벅스
282,서울특별시,영등포구,스타벅스,KBS동문점,126.91769659481501,37.5263141620611,서울특별시 영등포구 국회대로62길 25,서울 영등포,1,스타벅스
283,서울특별시,서초구,스타벅스,신세계강남점,127.00239321346001,37.5039300142165,서울특별시 서초구 신반포로 176,서울 서초,1,스타벅스
284,서울특별시,성북구,스타벅스,고대안암병원점,127.02634146934601,37.5870983380348,서울특별시 성북구 인촌로 73,서울 성북,1,스타벅스
285,서울특별시,중구,스타벅스,명동MPLAZA점,126.98515461767799,37.562522417848704,서울특별시 중구 명동8길 27,서울 중구,1,스타벅스
286,부산광역시,부산진구,스타벅스부산서면점,부산서면점,129.061572243583,35.1541148726858,부산광역시 부산진구 중앙대로692번길 46-10,부산 부산진,1,스타벅스
287,서울특별시,서초구,스타벅스,교대법원점,127.013361956833,37.496354172193705,서울특별시 서초구 서초중앙로 164,서울 서초,1,스타벅스
288,서울특별시,강남구,스타벅스대치점,대치점,127.06222129600701,37.4996265116081,서울특별시 강남구 도곡로 511,서울 강남,1,스타벅스
289,부산광역시,해운대구,스타벅스,부산송정비치점,129.202282582024,35.180742924137995,부산광역시 해운대구 송정해변로 36,부산 해운대,1,스타벅스
290,서울특별시,노원구,스타벅스광운대점,광운대점,127.060705412335,37.623175176207106,서울특별시 노원구 석계로 104,서울 노원,1,스타벅스
291,부산광역시,서구,스타벅스,부산동대신역점,129.0167602861,35.1126652517405,부산광역시 서구 구덕로322번길 7,부산 서구,1,스타벅스
292,부산광역시,부산진구,스타벅스,서면일번가점,129.057298904942,35.1529624007867,부산광역시 부산진구 서면로 25,부산 부산진,1,스타벅스
293,서울특별시,노원구,스타벅스,서울여대점,127.08896902025299,37.6287759891336,서울특별시 노원구 화랑로 621,서울 노원,1,스타벅스
294,부산광역시,동래구,스타벅스,부산온천장역점,129.08560153654,35.2213075406717,부산광역시 동래구 중앙대로 1523,부산 동래,1,스타벅스
295,서울특별시,강동구,스타벅스상일동점,상일동점,127.174086955006,37.5507137314169,서울특별시 강동구 상일로10길 36,서울 강동,1,스타벅스
296,서울특별시,서대문구,스타벅스신촌점,신촌점,126.93710095594801,37.5564770804222,서울특별시 서대문구 연세로 10-1,서울 서대문,1,스타벅스
297,서울특별시,강남구,스타벅스,강남비젼타워점,127.02967923943199,37.4964803158248,서울특별시 강남구 테헤란로2길 27,서울 강남,1,스타벅스
298,서울특별시,중구,스타벅스,순화동더샵점,126.97202179687001,37.5602553075084,서울특별시 중구 칠패로 27,서울 중구,1,스타벅스
299,서울특별시,종로구,스타벅스,광교점,126.984173416485,37.5689293983818,서울특별시 종로구 청계천로 59,서울 종로,1,스타벅스
300,서울특별시,구로구,스타벅스,신세계아이엔씨점,126.89152671903798,37.4859028941571,서울특별시 구로구 디지털로31길 61,서울 구로,1,스타벅스
301,서울특별시,영등포구,스타벅스,당산역점,126.90187402177,37.5344666842402,서울특별시 영등포구 당산로 231,서울 영등포,1,스타벅스
302,서울특별시,마포구,스타벅스상암DMC센트럴몰점,상암DMC센트럴몰점,126.89082837975201,37.57739695031921,서울특별시 마포구 월드컵북로 375,서울 마포,1,스타벅스
303,서울특별시,종로구,스타벅스삼청동점,삼청동점,126.98176480007099,37.5853706511239,서울특별시 종로구 삼청로 111-1,서울 종로,1,스타벅스
304,서울특별시,송파구,스타벅스석촌호수점,석촌호수점,127.105216364301,37.5094301379565,서울특별시 송파구 석촌호수로 262,서울 송파,1,스타벅스
305,서울특별시,동작구,스타벅스숭실대점,숭실대점,126.95483994085899,37.4954003760894,서울특별시 동작구 사당로 4,서울 동작,1,스타벅스
306,부산광역시,남구,스타벅스,경성대점,129.10064436277,35.1370003770109,부산광역시 남구 수영로 312,부산 남구,1,스타벅스
307,서울특별시,종로구,스타벅스,마로니에공원점,127.002321047314,37.5815275489605,서울특별시 종로구 대학로 116,서울 종로,1,스타벅스
308,부산광역시,해운대구,스타벅스,해운대달맞이점,129.18232239807,35.1579362612154,부산광역시 해운대구 달맞이길 189,부산 해운대,1,스타벅스
309,서울특별시,영등포구,스타벅스,국민은행여의도점,126.927877610239,37.5208565955424,서울특별시 영등포구 국제금융로8길 26,서울 영등포,1,스타벅스
310,서울특별시,동대문구,스타벅스청량리역점,청량리역점,127.044812040364,37.5797615830621,서울특별시 동대문구 왕산로40길 2,서울 동대문,1,스타벅스
311,서울특별시,강남구,스타벅스,도산가로수길점,127.02336846793699,37.51734176493221,서울특별시 강남구 도산대로 134,서울 강남,1,스타벅스
312,서울특별시,영등포구,스타벅스,대우증권점,126.929700867318,37.522305793403895,서울특별시 영등포구 국제금융로 56,서울 영등포,1,스타벅스
313,부산광역시,사상구,스타벅스,사상역점,128.983425647611,35.1639866756647,부산광역시 사상구 사상로 211,부산 사상,1,스타벅스
314,서울특별시,강남구,스타벅스역삼역점,역삼역점,127.03517761074801,37.500706248524295,서울특별시 강남구 테헤란로 145,서울 강남,1,스타벅스
315,부산광역시,부산진구,스타벅스,서면역점,129.059921644154,35.1580143250476,부산광역시 부산진구 서전로 1,부산 부산진,1,스타벅스
316,서울특별시,강남구,스타벅스,도심공항터미널점,127.059426824816,37.509624041536796,서울특별시 강남구 테헤란로87길 22,서울 강남,1,스타벅스
317,서울특별시,마포구,스타벅스홍대갤러리점,홍대갤러리점,126.924866123909,37.5533297985066,서울특별시 마포구 와우산로 101,서울 마포,1,스타벅스
318,서울특별시,광진구,스타벅스,광나루점,127.106087855114,37.547308115427704,서울특별시 광진구 아차산로 607,서울 광진,1,스타벅스
319,서울특별시,용산구,스타벅스,동빙고점,126.99178677323201,37.528970243763105,서울특별시 용산구 장문로 12,서울 용산,1,스타벅스
320,서울특별시,강동구,스타벅스,길동역점,127.14002383238001,37.53871178089821,서울특별시 강동구 양재대로 1487,서울 강동,1,스타벅스
321,서울특별시,강남구,스타벅스,구역삼세무서점,127.038880731616,37.4959157868406,서울특별시 강남구 논현로 401,서울 강남,1,스타벅스
322,부산광역시,해운대구,스타벅스,하버타운점,129.159540011725,35.15970683306411,부산광역시 해운대구 해운대해변로 257,부산 해운대,1,스타벅스
323,서울특별시,구로구,스타벅스,구로호텔점,126.898837323937,37.4831780131692,서울특별시 구로구 디지털로32길 72,서울 구로,1,스타벅스
324,서울특별시,서초구,스타벅스,강남GT타워점,127.02590362191299,37.4980981742341,서울특별시 서초구 서초대로 411,서울 서초,1,스타벅스
325,서울특별시,강남구,스타벅스,삼성2점,127.065230995138,37.5085888497427,서울특별시 강남구 테헤란로104길 9,서울 강남,1,스타벅스
326,서울특별시,마포구,스타벅스홍대삼거리점,홍대삼거리점,126.92325869850401,37.5502065639045,서울특별시 마포구 와우산로 64,서울 마포,1,스타벅스
327,서울특별시,광진구,스타벅스,건대입구점,127.070714543377,37.5406916237944,서울특별시 광진구 능동로 107,서울 광진,1,스타벅스
328,서울특별시,영등포구,스타벅스,롯데캐슬여의도점,126.926163737378,37.520462586264294,서울특별시 영등포구 의사당대로 127,서울 영등포,1,스타벅스
329,서울특별시,종로구,스타벅스광화문점,광화문점,126.976285499202,37.5712580290613,서울특별시 종로구 세종대로 167,서울 종로,1,스타벅스
330,서울특별시,은평구,스타벅스구산역점,구산역점,126.91769325535299,37.611813488737795,서울특별시 은평구 연서로 146,서울 은평,1,스타벅스
331,부산광역시,해운대구,스타벅스,해운대달맞이DT점,129.170782232651,35.161437524362,부산광역시 해운대구 달맞이길 57,부산 해운대,1,스타벅스
332,부산광역시,사하구,스타벅스,부산다대포점,128.964199624224,35.048941192239496,부산광역시 사하구 다대로 708,부산 사하,1,스타벅스
333,서울특별시,마포구,스타벅스합정메세나몰점,합정메세나몰점,126.91393744150601,37.551490770997795,서울특별시 마포구 양화로 45,서울 마포,1,스타벅스
334,서울특별시,양천구,스타벅스목동5단지점,목동5단지점,126.882197957914,37.536732898438395,서울특별시 양천구 목동동로 411,서울 양천,1,스타벅스
335,서울특별시,강남구,스타벅스,신세계도곡점,127.054163435442,37.4892992237675,서울특별시 강남구 언주로30길 57,서울 강남,1,스타벅스
336,서울특별시,서초구,스타벅스,반포역점,127.01344801826099,37.509582355568796,서울특별시 서초구 나루터로4길 61,서울 서초,1,스타벅스
337,서울특별시,영등포구,스타벅스,타임스퀘어B2점,126.903914224263,37.517212666105706,서울특별시 영등포구 영중로 15,서울 영등포,1,스타벅스
338,부산광역시,부산진구,스타벅스,부전역점,129.061903308303,35.1618549283166,부산광역시 부산진구 중앙대로 777,부산 부산진,1,스타벅스
339,서울특별시,용산구,스타벅스,이태원입구점,126.989422726707,37.533959861770896,서울특별시 용산구 이태원로 140-1,서울 용산,1,스타벅스
340,부산광역시,중구,스타벅스,남포동역점,129.035150801164,35.0983215343327,부산광역시 중구 구덕로 4,부산 중구,1,스타벅스
341,서울특별시,성북구,스타벅스한성대입구역점,한성대입구역점,127.004904251791,37.58904601155472,서울특별시 성북구 성북로 11,서울 성북,1,스타벅스
342,서울특별시,영등포구,스타벅스,영등포본동점,126.909582972668,37.518670766386,서울특별시 영등포구 영등포로 254,서울 영등포,1,스타벅스
343,서울특별시,송파구,스타벅스송파사거리점,송파사거리점,127.110334770409,37.502269334236004,서울특별시 송파구 송파대로 386,서울 송파,1,스타벅스
344,부산광역시,동구,스타벅스,범일동역점,129.058596888446,35.1413230864786,부산광역시 동구 범일로 125,부산 동구,1,스타벅스
345,서울특별시,마포구,스타벅스서교점,서교점,126.91690425281,37.5513738575528,서울특별시 마포구 양화로 78,서울 마포,1,스타벅스
346,서울특별시,구로구,스타벅스,오류동역점,126.844849844365,37.4962051540044,서울특별시 구로구 경인로 216,서울 구로,1,스타벅스
347,서울특별시,중구,스타벅스,숭례문점,126.973244053454,37.5586170363758,서울특별시 중구 세종대로 17,서울 중구,1,스타벅스
348,서울특별시,서초구,스타벅스강남에비뉴점,강남에비뉴점,127.02388692547399,37.502721958552,서울특별시 서초구 서초대로77길 62,서울 서초,1,스타벅스
349,서울특별시,종로구,스타벅스,써머셋팰리스점,126.981226721716,37.57500405238,서울특별시 종로구 율곡로2길 7,서울 종로,1,스타벅스
350,부산광역시,부산진구,스타벅스,롯데서면점,129.05643770099599,35.1568098468641,부산광역시 부산진구 가야대로 772,부산 부산진,1,스타벅스
351,서울특별시,은평구,스타벅스연신내역점,연신내역점,126.92010980759501,37.61780044605271,서울특별시 은평구 연서로 216,서울 은평,1,스타벅스
352,서울특별시,중구,스타벅스,명동5점,126.98523376625099,37.5616941389797,서울특별시 중구 명동8가길 3-1,서울 중구,1,스타벅스
353,서울특별시,종로구,스타벅스,안국점,126.98563245418,37.5773666774701,서울특별시 종로구 북촌로 5-1,서울 종로,1,스타벅스
354,서울특별시,마포구,스타벅스상암디지털큐브점상암디지털큐브점,상암디지털큐브점상암디지털큐브점,126.889225742053,37.576300640514795,서울특별시 마포구 상암산로 34,서울 마포,1,스타벅스
355,서울특별시,강남구,스타벅스,도곡역점,127.057395337984,37.4921723983972,서울특별시 강남구 남부순환로 2909,서울 강남,1,스타벅스
356,서울특별시,강남구,스타벅스,삼성점,127.055580896323,37.50694425070989,서울특별시 강남구 테헤란로 443,서울 강남,1,스타벅스
357,부산광역시,부산진구,PPANGJIP(스타벅스재능기부카페2호점),GJIP(스타벅스재능기부카페2호점)점,129.067558785576,35.153656645285004,부산광역시 부산진구 전포대로190번길 35,부산 부산진,1,스타벅스
358,서울특별시,종로구,스타벅스,종로YBM점,126.988011270682,37.56973725599161,서울특별시 종로구 삼일대로 394,서울 종로,1,스타벅스
359,서울특별시,마포구,스타벅스월드컵경기장점,월드컵경기장점,126.897257447574,37.568275645267704,서울특별시 마포구 월드컵로 240,서울 마포,1,스타벅스
360,서울특별시,강남구,스타벅스,역삼점,127.03773377270201,37.501574090614206,서울특별시 강남구 테헤란로 203,서울 강남,1,스타벅스
361,서울특별시,강남구,스타벅스압구정로데오역점,압구정로데오역점,127.040513119755,37.5265378643378,서울특별시 강남구 선릉로 836,서울 강남,1,스타벅스
362,서울특별시,금천구,스타벅스,가산그레이트점,126.887266473346,37.4796276001816,서울특별시 금천구 디지털로9길 32,서울 금천,1,스타벅스
363,서울특별시,광진구,스타벅스,건대병원점,127.07204319614999,37.541224682309704,서울특별시 광진구 능동로 120-1,서울 광진,1,스타벅스
364,서울특별시,중구,스타벅스,경기빌딩점,126.983227937665,37.566866884039605,서울특별시 중구 남대문로10길 6,서울 중구,1,스타벅스
365,서울특별시,중구,스타벅스명동역점,명동역점,126.983083260827,37.5608556864363,서울특별시 중구 퇴계로 101,서울 중구,1,스타벅스
366,서울특별시,마포구,스타벅스,홍대역점,126.923599454067,37.5572017356505,서울특별시 마포구 양화로 165,서울 마포,1,스타벅스
367,서울특별시,강남구,스타벅스,랜드마크점,127.031801329315,37.4906588834388,서울특별시 강남구 강남대로 308,서울 강남,1,스타벅스
368,부산광역시,사하구,스타벅스하단역점,하단역점,128.968265719907,35.1073654053936,부산광역시 사하구 승학로3번길 23,부산 사하,1,스타벅스
369,서울특별시,중구,스타벅스황학캐슬점,황학캐슬점,127.021448203321,37.5708030625306,서울특별시 중구 청계천로 400,서울 중구,1,스타벅스
370,서울특별시,성북구,스타벅스고대프라자점,고대프라자점,127.030957744251,37.5864875767796,서울특별시 성북구 인촌로 105,서울 성북,1,스타벅스
371,서울특별시,영등포구,스타벅스,IFC몰점,126.924863083917,37.5251722235016,서울특별시 영등포구 국제금융로 10,서울 영등포,1,스타벅스
372,서울특별시,광진구,스타벅스,광나루역점,127.102911969818,37.544130344049,서울특별시 광진구 아차산로 563,서울 광진,1,스타벅스
373,서울특별시,종로구,스타벅스,제일은행본점,126.982423077525,37.5711128646326,서울특별시 종로구 종로 47,서울 종로,1,스타벅스
374,서울특별시,종로구,스타벅스,경복궁역점,126.972615705273,37.5771730114202,서울특별시 종로구 자하문로4길 6,서울 종로,1,스타벅스
375,서울특별시,강남구,스타벅스,역삼이마트점,127.048406096675,37.4992276933378,서울특별시 강남구 역삼로 310,서울 강남,1,스타벅스
376,서울특별시,강남구,스타벅스,삼성서울병원점,127.08957883163201,37.490334340869495,서울특별시 강남구 일원로 81,서울 강남,1,스타벅스
377,서울특별시,강남구,스타벅스코엑스사거리점,코엑스사거리점,127.06019337998899,37.5152437173541,서울특별시 강남구 영동대로 616,서울 강남,1,스타벅스
378,서울특별시,강남구,스타벅스,포스코사거리점,127.056219039363,37.508364008586895,서울특별시 강남구 삼성로 518,서울 강남,1,스타벅스
379,부산광역시,동구,스타벅스부산초량점,부산초량점,129.03980925832,35.112776211508,부산광역시 동구 중앙대로180번길 12-4,부산 동구,1,스타벅스
380,부산광역시,금정구,스타벅스,부산대점,129.086648709762,35.2306454522517,부산광역시 금정구 금정로68번길 2,부산 금정,1,스타벅스
381,서울특별시,강남구,스타벅스,선릉점,127.0511760602,37.503764266198395,서울특별시 강남구 테헤란로64길 18,서울 강남,1,스타벅스
382,서울특별시,양천구,스타벅스,목동7단지점,126.870595896767,37.52800857672021,서울특별시 양천구 목동서로 213,서울 양천,1,스타벅스
383,서울특별시,중구,스타벅스명동길점,명동길점,126.9858514681,37.562050853336395,서울특별시 중구 명동10길 41,서울 중구,1,스타벅스
384,서울특별시,서대문구,스타벅스,이대점,126.945924012362,37.5584393559433,서울특별시 서대문구 이화여대길 34,서울 서대문,1,스타벅스
385,서울특별시,마포구,스타벅스,상수역점,126.923207056972,37.547502973067104,서울특별시 마포구 독막로 88,서울 마포,1,스타벅스
386,서울특별시,성동구,스타벅스엔터식스한양대점,엔터식스한양대점,127.040008574127,37.557070331727,서울특별시 성동구 왕십리로 241,서울 성동,1,스타벅스
387,서울특별시,강남구,스타벅스,코엑스2점,127.05913910242799,37.5118203253706,서울특별시 강남구 영동대로 513,서울 강남,1,스타벅스
388,서울특별시,종로구,스타벅스종로수송점,종로수송점,126.98068354236601,37.5716655130709,서울특별시 종로구 종로5길 30,서울 종로,1,스타벅스
389,서울특별시,마포구,스타벅스마포트라팰점,마포트라팰점,126.95550656842501,37.55224426177461,서울특별시 마포구 마포대로 201,서울 마포,1,스타벅스
390,서울특별시,강남구,스타벅스,삼성역점,127.063192969498,37.510564037367395,서울특별시 강남구 영동대로96길 8,서울 강남,1,스타벅스
391,서울특별시,양천구,스타벅스,신월ICDT점,126.832196508633,37.5295182620174,서울특별시 양천구 남부순환로 430,서울 양천,1,스타벅스
392,서울특별시,서초구,스타벅스방배카페입구점,방배카페입구점,126.985676893834,37.4972370082012,서울특별시 서초구 방배중앙로 204,서울 서초,1,스타벅스
393,서울특별시,광진구,스타벅스,자양사거리점,127.082546387004,37.537360142267296,서울특별시 광진구 아차산로 355,서울 광진,1,스타벅스
394,서울특별시,마포구,스타벅스,홍대공원점,126.923245387766,37.551918417829796,서울특별시 마포구 와우산로 83,서울 마포,1,스타벅스
395,서울특별시,강남구,스타벅스,을지병원사거리점,127.028627805482,37.5191511988017,서울특별시 강남구 논현로 752,서울 강남,1,스타벅스
396,서울특별시,중구,스타벅스,조선호텔후문점,126.980757256014,37.5637640159767,서울특별시 중구 남대문로7길 19,서울 중구,1,스타벅스
397,서울특별시,종로구,스타벅스,대학로점,127.00223302562999,37.5821845648109,서울특별시 종로구 대학로 122,서울 종로,1,스타벅스
398,서울특별시,강남구,스타벅스,강남점,127.02751773060699,37.4992107601886,서울특별시 강남구 강남대로 408,서울 강남,1,스타벅스
399,서울특별시,강남구,스타벅스,한티점,127.05371510929399,37.497945786956,서울특별시 강남구 선릉로64길 18,서울 강남,1,스타벅스
400,서울특별시,영등포구,스타벅스동여의도점,동여의도점,126.93177854364299,37.520198138511795,서울특별시 영등포구 국제금융로 86,서울 영등포,1,스타벅스
401,서울특별시,강북구,스타벅스미아사거리역점,미아사거리역점,127.03068549429199,37.61184061505049,서울특별시 강북구 도봉로 32,서울 강북,1,스타벅스
402,서울특별시,영등포구,스타벅스,양평동점,126.896859894016,37.5338162535295,서울특별시 영등포구 선유동2로 57,서울 영등포,1,스타벅스
403,서울특별시,강동구,스타벅스둔촌동점,둔촌동점,127.133928149649,37.52276357105271,서울특별시 강동구 양재대로 1303,서울 강동,1,스타벅스
404,서울특별시,송파구,스타벅스송파방이DT점,송파방이DT점,127.120508852575,37.5065444620512,서울특별시 송파구 오금로 241,서울 송파,1,스타벅스
405,부산광역시,해운대구,스타벅스해운대점,해운대점,129.162202881886,35.1601770763519,부산광역시 해운대구 구남로 49,부산 해운대,1,스타벅스
406,부산광역시,부산진구,스타벅스동의대역점동의대역점,동의대역점동의대역점,129.036230437511,35.1550012950882,부산광역시 부산진구 가야대로 589,부산 부산진,1,스타벅스
407,서울특별시,강남구,스타벅스,청담역점,127.051146995902,37.517676320509295,서울특별시 강남구 삼성로 646,서울 강남,1,스타벅스
408,서울특별시,중구,스타벅스소공로북창점,소공로북창점,126.97892425905,37.56371213512379,서울특별시 중구 세종대로18길 32,서울 중구,1,스타벅스
409,서울특별시,양천구,스타벅스,오목교사거리점,126.87625414675101,37.5241430317764,서울특별시 양천구 오목로 350,서울 양천,1,스타벅스
410,부산광역시,강서구,스타벅스명지오션시티점,명지오션시티점,128.903180537101,35.0840433496121,부산광역시 강서구 명지오션시티11로 66,부산 강서,1,스타벅스
411,서울특별시,중랑구,스타벅스,-점,127.09250549276199,37.597870460692,서울특별시 중랑구 상봉로 131,서울 중랑,1,스타벅스
412,서울특별시,영등포구,스타벅스,선유도역점,126.89459081557101,37.537300079323,서울특별시 영등포구 양평로 115,서울 영등포,1,스타벅스
413,서울특별시,중구,스타벅스,한국프레스센터점,126.97785493719,37.5674151730747,서울특별시 중구 세종대로 124,서울 중구,1,스타벅스
414,서울특별시,종로구,스타벅스동묘앞역점동묘앞역점,동묘앞역점동묘앞역점,127.016068581604,37.5727136114594,서울특별시 종로구 종로 344,서울 종로,1,스타벅스
415,서울특별시,영등포구,스타벅스,여의도역점,126.923429755471,37.523357078957,서울특별시 영등포구 의사당대로 83,서울 영등포,1,스타벅스
416,서울특별시,용산구,스타벅스,서울타워점,126.98785574876001,37.5511113627592,서울특별시 용산구 남산공원길 105,서울 용산,1,스타벅스
417,서울특별시,마포구,스타벅스서교동사거리점,서교동사거리점,126.918561136612,37.553407372579606,서울특별시 마포구 양화로 105,서울 마포,1,스타벅스
418,서울특별시,서초구,스타벅스,방배점,126.99050928001002,37.49194416824479,서울특별시 서초구 방배로 211,서울 서초,1,스타벅스
419,서울특별시,강남구,스타벅스역삼럭키점,역삼럭키점,127.039391664754,37.492225610599704,서울특별시 강남구 도곡로 183,서울 강남,1,스타벅스
420,부산광역시,연제구,스타벅스부산교대역점,부산교대역점,129.081252384634,35.196504358585294,부산광역시 연제구 명륜로 3,부산 연제,1,스타벅스
421,서울특별시,중구,스타벅스,국민은행명동점,126.982828101442,37.5646378662118,서울특별시 중구 남대문로 84,서울 중구,1,스타벅스
422,서울특별시,성북구,스타벅스종암점,종암점,127.033983452137,37.6011813308853,서울특별시 성북구 종암로 122,서울 성북,1,스타벅스
423,서울특별시,강남구,스타벅스포스코사거리점,포스코사거리점,127.057428066223,37.5075627123392,서울특별시 강남구 테헤란로 505,서울 강남,1,스타벅스
424,부산광역시,동래구,스타벅스,동래미남DT점,129.07206987370702,35.207186283523,부산광역시 동래구 충렬대로 101,부산 동래,1,스타벅스
425,서울특별시,동대문구,스타벅스신설동역점,신설동역점,127.02550323167802,37.5767024003417,서울특별시 동대문구 왕산로 19,서울 동대문,1,스타벅스
426,서울특별시,강서구,스타벅스화곡동점,화곡동점,126.83756898643298,37.5405548865621,서울특별시 강서구 화곡로 142,서울 강서,1,스타벅스
427,서울특별시,송파구,스타벅스,문정로데오점,127.126233039197,37.4918996397466,서울특별시 송파구 동남로 141,서울 송파,1,스타벅스
428,서울특별시,서초구,스타벅스청계산입구역점,청계산입구역점,127.05625242638901,37.4472723955747,서울특별시 서초구 청계산로 203,서울 서초,1,스타벅스
429,서울특별시,강서구,스타벅스양천향교역점,양천향교역점,126.840442028048,37.5669203191806,서울특별시 강서구 강서로 463,서울 강서,1,스타벅스
430,서울특별시,중구,스타벅스,남산스테이트점,126.982911122996,37.5601964424547,서울특별시 중구 퇴계로 100,서울 중구,1,스타벅스
431,서울특별시,중구,스타벅스중구저동점,중구저동점,126.99033643077,37.56436893263809,서울특별시 중구 수표로 34,서울 중구,1,스타벅스
432,서울특별시,강남구,스타벅스,논현힐탑점,127.032255003449,37.5115850987019,서울특별시 강남구 논현로 648,서울 강남,1,스타벅스
433,부산광역시,기장군,스타벅스부산프리미엄점,부산프리미엄점,129.234970505052,35.3237482824346,부산광역시 기장군 장안읍 정관로 1133,부산 기장,1,스타벅스
434,서울특별시,중구,스타벅스,명동미래점,126.984532402493,37.5641659751905,서울특별시 중구 명동7길 8,서울 중구,1,스타벅스
435,서울특별시,영등포구,스타벅스,여의도호성점,126.92927506344101,37.5204367716676,서울특별시 영등포구 여의대방로65길 24,서울 영등포,1,스타벅스
436,서울특별시,마포구,스타벅스신촌오거리점,신촌오거리점,126.93466360149598,37.5551666257155,서울특별시 마포구 신촌로16길 10,서울 마포,1,스타벅스
437,부산광역시,부산진구,스타벅스,서면트레이더스점,129.052578034968,35.163919371925004,부산광역시 부산진구 시민공원로 31,부산 부산진,1,스타벅스
438,서울특별시,강서구,스타벅스염창역점,염창역점,126.87452635372,37.547274247042296,서울특별시 강서구 공항대로 627,서울 강서,1,스타벅스
439,서울특별시,서대문구,스타벅스충정타워점,충정타워점,126.964069882556,37.5598884579046,서울특별시 서대문구 서소문로 21,서울 서대문,1,스타벅스
440,서울특별시,마포구,스타벅스마포이마트점,마포이마트점,126.953346488998,37.542421791058295,서울특별시 마포구 백범로 212,서울 마포,1,스타벅스
441,서울특별시,강동구,스타벅스,천호이마트점,127.12513253438298,37.5387195343382,서울특별시 강동구 천호대로 1017,서울 강동,1,스타벅스
442,서울특별시,동작구,스타벅스숭실대입구역점,숭실대입구역점,126.952704694419,37.4968681980081,서울특별시 동작구 상도로 354,서울 동작,1,스타벅스
443,서울특별시,영등포구,스타벅스영등포신길DT점,영등포신길DT점,126.91005961849899,37.5045648097649,서울특별시 영등포구 신길로 137,서울 영등포,1,스타벅스
444,서울특별시,중구,스타벅스,명동중앙로점,126.98573772021099,37.5637618569889,서울특별시 중구 명동길 60,서울 중구,1,스타벅스
445,서울특별시,중구,스타벅스약수역점,약수역점,127.01071622933998,37.5554228939156,서울특별시 중구 다산로 129,서울 중구,1,스타벅스
446,서울특별시,중구,스타벅스회현역점,회현역점,126.980582926744,37.5591131321314,서울특별시 중구 퇴계로 72,서울 중구,1,스타벅스
447,서울특별시,강남구,스타벅스대치사거리점,대치사거리점,127.05881553706499,37.5033568327036,서울특별시 강남구 삼성로 402,서울 강남,1,스타벅스
448,서울특별시,서초구,스타벅스,반포역점,127.011922479411,37.508614488461795,서울특별시 서초구 신반포로 257,서울 서초,1,스타벅스
449,서울특별시,중구,스타벅스명동입구점,명동입구점,126.982258687479,37.5632273331076,서울특별시 중구 남대문로 68-1,서울 중구,1,스타벅스
450,서울특별시,관악구,스타벅스낙성대DT점,낙성대DT점,126.96500010525101,37.4761982963166,서울특별시 관악구 남부순환로 1948,서울 관악,1,스타벅스
451,서울특별시,동작구,스타벅스,중앙대점,126.95812885181401,37.5069358330654,서울특별시 동작구 흑석로 75-1,서울 동작,1,스타벅스
452,서울특별시,강남구,스타벅스강남우성점,강남우성점,127.030693855019,37.49235279858821,서울특별시 강남구 강남대로 328,서울 강남,1,스타벅스
453,서울특별시,성북구,스타벅스성신여대정문,성신여대정문점,127.01884212683399,37.59082962073969,서울특별시 성북구 보문로34길 62,서울 성북,1,스타벅스
454,서울특별시,영등포구,스타벅스,국회의사당역점,126.916882222676,37.5278654998234,서울특별시 영등포구 의사당대로 8,서울 영등포,1,스타벅스
455,서울특별시,강북구,스타벅스,미아뉴타운점,127.021108114965,37.6183841817231,서울특별시 강북구 삼양로 161,서울 강북,1,스타벅스
456,서울특별시,용산구,스타벅스한남동점,한남동점,127.010920838672,37.5347996427069,서울특별시 용산구 독서당로 94,서울 용산,1,스타벅스
457,부산광역시,수영구,스타벅스광안비치점,광안비치점,129.11774096458,35.1531049335463,부산광역시 수영구 광안로62번길 39,부산 수영,1,스타벅스
458,서울특별시,마포구,스타벅스커피마포염리,커피마포염리점,126.94746278019699,37.5439913688051,서울특별시 마포구 독막로 311,서울 마포,1,스타벅스
459,서울특별시,양천구,스타벅스,목동오목로점,126.868376108501,37.5259149373251,서울특별시 양천구 오목로 279,서울 양천,1,스타벅스
460,서울특별시,강서구,스타벅스화곡DT점,화곡DT점,126.86311230232201,37.5350639785405,서울특별시 강서구 등촌로 57,서울 강서,1,스타벅스
461,부산광역시,사하구,스타벅스을숙도강변DT점,을숙도강변DT점,128.959639977562,35.1154475120822,부산광역시 사하구 하신번영로 381-6,부산 사하,1,스타벅스
462,서울특별시,금천구,스타벅스가산디지털단지역점,가산디지털단지역점,126.883859005074,37.4814335948223,서울특별시 금천구 벚꽃로 298,서울 금천,1,스타벅스
463,서울특별시,중구,스타벅스,신당역사거리점,127.01644066132499,37.565940863069,서울특별시 중구 다산로 258,서울 중구,1,스타벅스
464,서울특별시,강남구,스타벅스압구정점,압구정점,127.029541735527,37.526322072252796,서울특별시 강남구 압구정로30길 17,서울 강남,1,스타벅스
465,서울특별시,강동구,스타벅스강동역점,강동역점,127.133078371911,37.5365615358794,서울특별시 강동구 천호대로 1089,서울 강동,1,스타벅스
466,부산광역시,해운대구,스타벅스부산재송DT점,부산재송DT점,129.124131131116,35.1812140717086,부산광역시 해운대구 해운대로 185-8,부산 해운대,1,스타벅스
467,서울특별시,강남구,스타벅스대치은마사거리점,대치은마사거리점,127.06015953382901,37.4989974073525,서울특별시 강남구 도곡로 457,서울 강남,1,스타벅스
468,서울특별시,마포구,스타벅스합정점,합정점,126.91204590555799,37.5500407049077,서울특별시 마포구 월드컵로1길 14,서울 마포,1,스타벅스
469,부산광역시,기장군,스타벅스동부산DT,동부산DT점,129.21102711507,35.1840720054714,부산광역시 기장군 기장읍 기장해안로 54,부산 기장,1,스타벅스
470,부산광역시,기장군,스타벅스,동부산DT점,129.21102711507,35.1840720054714,부산광역시 기장군 기장읍 기장해안로 54,부산 기장,1,스타벅스
471,서울특별시,중구,스타벅스,연세세브란스점,126.973615890497,37.55708849742809,서울특별시 중구 통일로 10,서울 중구,1,스타벅스
472,부산광역시,기장군,스타벅스동부산DT,동부산DT점,129.21083005414602,35.1841100307052,부산광역시 기장군 기장읍 기장해안로 56,부산 기장,1,스타벅스
473,서울특별시,송파구,스타벅스,송파방이DT점,127.120565823608,37.5065088438119,서울특별시 송파구 오금로 241,서울 송파,1,스타벅스
474,부산광역시,해운대구,스타벅스부산재송DT,부산재송DT점,129.12400002163,35.181260357632,부산광역시 해운대구 해운대로 189,부산 해운대,1,스타벅스
475,서울특별시,영등포구,스타벅스,영등포KT점,126.905019084861,37.526755944545606,서울특별시 영등포구 영중로 119,서울 영등포,1,스타벅스
476,부산광역시,동래구,스타벅스사직구장점,사직구장점,129.06138484985502,35.1962835154483,부산광역시 동래구 사직북로 4,부산 동래,1,스타벅스
477,서울특별시,양천구,스타벅스,목동8단지점,126.86881902233101,37.5205579957556,서울특별시 양천구 목동서로 299,서울 양천,1,스타벅스
478,서울특별시,서초구,스타벅스,방배카페골목점,126.98655264751301,37.493523177117,서울특별시 서초구 방배중앙로 162,서울 서초,1,스타벅스
479,서울특별시,강남구,스타벅스,청담스타점,127.04181932969101,37.5252509543256,서울특별시 강남구 도산대로57길 24,서울 강남,1,스타벅스
480,서울특별시,용산구,스타벅스,이촌역점,126.97039214150699,37.5248570913299,서울특별시 용산구 서빙고로 67,서울 용산,1,스타벅스
481,서울특별시,마포구,스타벅스,서강대흥역점,126.94155205656,37.5482545237074,서울특별시 마포구 백범로 89,서울 마포,1,스타벅스
482,서울특별시,서대문구,스타벅스,연희동점,126.93050216113501,37.566797454407,서울특별시 서대문구 연희로 97,서울 서대문,1,스타벅스
483,서울특별시,중구,스타벅스,동대문점,127.00719164478501,37.5651606310157,서울특별시 중구 장충단로 229,서울 중구,1,스타벅스
484,부산광역시,수영구,스타벅스,금련산역점,129.110570722879,35.1471946665657,부산광역시 수영구 수영로464번길 6,부산 수영,1,스타벅스
485,서울특별시,강남구,스타벅스청담영동대로점,청담영동대로점,127.05644099938101,37.5221789486327,서울특별시 강남구 영동대로 720,서울 강남,1,스타벅스
486,서울특별시,동대문구,스타벅스,답십리역점,127.051102662847,37.568495187971,서울특별시 동대문구 천호대로 263,서울 동대문,1,스타벅스
487,서울특별시,서초구,스타벅스,강남대로논현점,127.022582353053,37.507360608755995,서울특별시 서초구 강남대로85길 5,서울 서초,1,스타벅스
488,부산광역시,수영구,스타벅스,수영역점,129.114500472629,35.1657722223676,부산광역시 수영구 수영로 671,부산 수영,1,스타벅스
489,서울특별시,마포구,스타벅스서강광흥창역점,서강광흥창역점,126.931678534065,37.549418048525,서울특별시 마포구 서강로 69,서울 마포,1,스타벅스
490,부산광역시,사하구,스타벅스,을숙도강변DT점,128.959562347489,35.1153760139958,부산광역시 사하구 하신번영로 381-6,부산 사하,1,스타벅스
491,서울특별시,관악구,스타벅스서울대역점,서울대역점,126.95220514258999,37.4816269954237,서울특별시 관악구 남부순환로 1817,서울 관악,1,스타벅스
492,서울특별시,강서구,스타벅스양천향교역,양천향교역점,126.84055856385,37.5674350512757,서울특별시 강서구 강서로 471,서울 강서,1,스타벅스
493,서울특별시,강서구,스타벅스,화곡DT점,126.863169824979,37.535001459722,서울특별시 강서구 등촌로 57,서울 강서,1,스타벅스
494,서울특별시,마포구,스타벅스,마포염리점,126.94746278019699,37.5439913688051,서울특별시 마포구 독막로 311,서울 마포,1,스타벅스
495,서울특별시,강남구,스타벅스신사가로수점,신사가로수점,127.022506036871,37.5218849410754,서울특별시 강남구 압구정로12길 32,서울 강남,1,스타벅스
496,서울특별시,영등포구,스타벅스,여의도공원점,126.924872251138,37.5292630435403,서울특별시 영등포구 여의공원로 101,서울 영등포,1,스타벅스
497,서울특별시,중구,스타벅스,동대입구역점,127.00613308162201,37.559637334572,서울특별시 중구 장충단로 166,서울 중구,1,스타벅스
498,서울특별시,용산구,스타벅스,남영동점,126.97223809158899,37.5428580456495,서울특별시 용산구 한강대로 275,서울 용산,1,스타벅스
499,서울특별시,송파구,스타벅스송파구청점,송파구청점,127.107405691887,37.5146007564183,서울특별시 송파구 오금로 87,서울 송파,1,스타벅스
500,서울특별시,중구,스타벅스신세계본점,신세계본점,126.98075850417901,37.5603490764434,서울특별시 중구 퇴계로 77,서울 중구,1,스타벅스
501,서울특별시,강서구,스타벅스양천향교역,양천향교역점,126.840442028048,37.5669203191806,서울특별시 강서구 강서로 463,서울 강서,1,스타벅스
502,부산광역시,중구,스타벅스자갈치역점,자갈치역점,129.029733589058,35.098394706438896,부산광역시 중구 구덕로 54-1,부산 중구,1,스타벅스
503,서울특별시,동대문구,스타벅스외대정문점,외대정문점,127.059209152241,37.5953751605981,서울특별시 동대문구 이문로 93,서울 동대문,1,스타벅스
504,서울특별시,서초구,스타벅스이수역사거리점,이수역사거리점,126.983047389605,37.4859872810427,서울특별시 서초구 서초대로 3-4,서울 서초,1,스타벅스
505,부산광역시,중구,스타벅스국제시장점,국제시장점,129.02860431745302,35.1027941273461,부산광역시 중구 대청로 80,부산 중구,1,스타벅스
506,서울특별시,서초구,스타벅스커피강남대로신사,커피강남대로신사점,127.019520989445,37.514850016339395,서울특별시 서초구 강남대로 595,서울 서초,1,스타벅스
507,서울특별시,성동구,스타벅스,성수역점,127.05694534325599,37.5432225413094,서울특별시 성동구 성수이로 94,서울 성동,1,스타벅스
508,서울특별시,노원구,스타벅스공릉역점,공릉역점,127.072254551413,37.6263661213083,서울특별시 노원구 동일로 1081,서울 노원,1,스타벅스
509,부산광역시,남구,스타벅스,동명대DT점,129.098943540848,35.123116344351104,부산광역시 남구 신선로 423,부산 남구,1,스타벅스
510,서울특별시,영등포구,스타벅스,국회대로점,126.919574282578,37.5302599014954,서울특별시 영등포구 국회대로 786,서울 영등포,1,스타벅스
511,서울특별시,송파구,스타벅스송파위례점,송파위례점,127.14374389224501,37.478547924507,서울특별시 송파구 위례광장로 230,서울 송파,1,스타벅스
512,부산광역시,연제구,스타벅스연산시티타워점,연산시티타워점,129.08069049691798,35.1880724097837,부산광역시 연제구 중앙대로 1125,부산 연제,1,스타벅스
513,서울특별시,강남구,스타벅스,강남구청정문점,127.04595802357201,37.5183012998145,서울특별시 강남구 학동로 419,서울 강남,1,스타벅스
514,서울특별시,송파구,스타벅스문정하비오점,문정하비오점,127.12487230133101,37.4796170833121,서울특별시 송파구 송파대로 111,서울 송파,1,스타벅스
515,서울특별시,강서구,스타벅스,가양역점,126.853258269858,37.5615852559942,서울특별시 강서구 양천로 476,서울 강서,1,스타벅스
516,서울특별시,서대문구,스타벅스,홍제역점,126.943833500618,37.588659503927204,서울특별시 서대문구 통일로 451,서울 서대문,1,스타벅스
517,서울특별시,구로구,스타벅스구로디지털타워점,구로디지털타워점,126.89650510613701,37.48338151459271,서울특별시 구로구 디지털로32길 30,서울 구로,1,스타벅스
518,서울특별시,송파구,스타벅스잠실대교남단점,잠실대교남단점,127.098885013703,37.515779517438396,서울특별시 송파구 올림픽로35길 141,서울 송파,1,스타벅스
519,서울특별시,은평구,스타벅스,연신내점,126.91988220878099,37.6202221317245,서울특별시 은평구 통일로 867,서울 은평,1,스타벅스
520,서울특별시,서초구,스타벅스,서울고속터미널점,127.00681633008001,37.5064271601893,서울특별시 서초구 신반포로 194,서울 서초,1,스타벅스
521,부산광역시,남구,스타벅스동명대DT점,동명대DT점,129.09895499486998,35.123152296228106,부산광역시 남구 신선로 423,부산 남구,1,스타벅스
522,서울특별시,중구,스타벅스,을지로내외빌딩점,126.983663297339,37.5664831848697,서울특별시 중구 을지로 51,서울 중구,1,스타벅스
523,서울특별시,은평구,스타벅스,연신내점,126.919789644121,37.6203564387311,서울특별시 은평구 통일로 869,서울 은평,1,스타벅스
524,부산광역시,수영구,스타벅스,금련산역점,129.110444877987,35.1468172367236,부산광역시 수영구 수영로 460,부산 수영,1,스타벅스
525,서울특별시,동대문구,스타벅스경희대삼거리점,경희대삼거리점,127.052010174093,37.5915602101229,서울특별시 동대문구 회기로 141,서울 동대문,1,스타벅스
526,서울특별시,중구,스타벅스신세계본점5F,신세계본점5F점,126.98096592536301,37.5609095133129,서울특별시 중구 소공로 63,서울 중구,1,스타벅스
527,서울특별시,금천구,스타벅스,금천시흥점,126.903216919415,37.448870700207706,서울특별시 금천구 시흥대로 164,서울 금천,1,스타벅스
528,서울특별시,송파구,스타벅스,잠실대교남단점,127.098885013703,37.515779517438396,서울특별시 송파구 송파대로 570,서울 송파,1,스타벅스
529,서울특별시,송파구,스타벅스문정역점,문정역점,127.120744114354,37.4845512962666,서울특별시 송파구 송파대로 167,서울 송파,1,스타벅스
530,서울특별시,금천구,스타벅스,독산사거리점,126.898645735596,37.4715797313437,서울특별시 금천구 시흥대로 426,서울 금천,1,스타벅스
531,서울특별시,서초구,스타벅스,강남대로신사점,127.019520989445,37.514850016339395,서울특별시 서초구 강남대로 595,서울 서초,1,스타벅스
532,서울특별시,중구,스타벅스,대우재단빌딩점,126.97513986945499,37.5565521000357,서울특별시 중구 퇴계로 18,서울 중구,1,스타벅스
533,서울특별시,성북구,스타벅스,미아점,127.02930198531601,37.607612382103895,서울특별시 성북구 동소문로 314,서울 성북,1,스타벅스
534,서울특별시,성동구,스타벅스황학사거리점,황학사거리점,127.02406214788799,37.56654474019409,서울특별시 성동구 왕십리로 410,서울 성동,1,스타벅스
535,서울특별시,강서구,스타벅스,마곡GMG점,126.82898701343201,37.560391911309,서울특별시 강서구 마곡중앙6로 16,서울 강서,1,스타벅스
536,서울특별시,양천구,스타벅스,목동역점,126.863793615607,37.526699893616794,서울특별시 양천구 목동로 203,서울 양천,1,스타벅스
537,서울특별시,중구,스타벅스,을지로국제빌딩점,126.982230332574,37.5669754231844,서울특별시 중구 남대문로 109,서울 중구,1,스타벅스
538,서울특별시,강남구,스타벅스강남점,강남점,127.028564755794,37.497831750028794,서울특별시 강남구 강남대로 390,서울 강남,1,스타벅스
539,서울특별시,강남구,스타벅스강남오거리점,강남오거리점,127.026643378379,37.5020959446628,서울특별시 강남구 봉은사로2길 39,서울 강남,1,스타벅스
540,서울특별시,노원구,스타벅스노원마들역점,노원마들역점,127.057078652885,37.6609627165363,서울특별시 노원구 노원로 569,서울 노원,1,스타벅스
541,서울특별시,강서구,스타벅스마곡나루역점,마곡나루역점,126.825946975642,37.5680294825785,서울특별시 강서구 마곡중앙로 161-17,서울 강서,1,스타벅스
542,부산광역시,중구,스타벅스,-점,129.03585346427602,35.1079154692235,부산광역시 중구 중앙대로115번길 1-6,부산 중구,1,스타벅스
543,서울특별시,용산구,스타벅스,이촌점,126.97726502544201,37.5186365047611,서울특별시 용산구 이촌로 276,서울 용산,1,스타벅스
544,서울특별시,동작구,스타벅스신대방삼거리역점,신대방삼거리역점,126.931761952017,37.49993345549621,서울특별시 동작구 상도로 102,서울 동작,1,스타벅스
545,부산광역시,해운대구,스타벅스,해운대점,129.159613384105,35.163329683637,부산광역시 해운대구 구남로 9,부산 해운대,1,스타벅스
546,서울특별시,광진구,스타벅스,올림픽대교북단점,127.095252872366,37.541152496608,서울특별시 광진구 광나루로 608,서울 광진,1,스타벅스
547,서울특별시,관악구,스타벅스,신림DT점,126.90840119664401,37.48096909195171,서울특별시 관악구 남부순환로 1419,서울 관악,1,스타벅스
548,서울특별시,마포구,스타벅스,마포경찰서후문점,126.953588789673,37.5509928534831,서울특별시 마포구 마포대로 173-14,서울 마포,1,스타벅스
549,부산광역시,금정구,스타벅스,온천장역DT점,129.086559430123,35.2239490044015,부산광역시 금정구 식물원로 13,부산 금정,1,스타벅스
550,서울특별시,마포구,스타벅스공덕,공덕점,126.95296884941901,37.545959541743606,서울특별시 마포구 마포대로 130,서울 마포,1,스타벅스
551,서울특별시,동작구,스타벅스역점,역점,126.931761952017,37.49993345549621,서울특별시 동작구 상도로 102,서울 동작,1,스타벅스
552,부산광역시,사상구,스타벅스,동서대DT점,129.009693433747,35.150700335595396,부산광역시 사상구 가야대로 338,부산 사상,1,스타벅스
553,서울특별시,성동구,스타벅스,뚝섬역점,127.049096357394,37.546439416062604,서울특별시 성동구 아차산로 42,서울 성동,1,스타벅스
554,서울특별시,구로구,스타벅스신도림점,신도림점,126.88394240739599,37.505465255199596,서울특별시 구로구 경인로 610,서울 구로,1,스타벅스
555,부산광역시,금정구,스타벅스,온천장역DT점,129.086484348439,35.224084885290004,부산광역시 금정구 식물원로 13,부산 금정,1,스타벅스
556,서울특별시,서대문구,스타벅스,신촌역점,126.934500325448,37.55630046248621,서울특별시 서대문구 신촌로 73,서울 서대문,1,스타벅스
557,서울특별시,용산구,스타벅스,신용산역점,126.966401274358,37.52875980441471,서울특별시 용산구 한강대로 95,서울 용산,1,스타벅스
558,서울특별시,마포구,스타벅스,홍대공항철도역점,126.92519108881599,37.557495558031796,서울특별시 마포구 양화로 178,서울 마포,1,스타벅스
559,서울특별시,송파구,스타벅스,송파개롱역점,127.12817165916599,37.5089890769025,서울특별시 송파구 마천로7길 14,서울 송파,1,스타벅스
560,부산광역시,해운대구,스타벅스,센텀파크점,129.123619904461,35.1767749992096,부산광역시 해운대구 센텀중앙로 145,부산 해운대,1,스타벅스
561,서울특별시,금천구,스타벅스,가산브이타워점,126.88368419181002,37.477224052987296,서울특별시 금천구 가산디지털1로 128,서울 금천,1,스타벅스
562,서울특별시,용산구,스타벅스,이촌역점,126.972331235072,37.523702619066796,서울특별시 용산구 서빙고로 69,서울 용산,1,스타벅스
563,서울특별시,서초구,스타벅스,미스타점,127.04410639234501,37.4736569936191,서울특별시 서초구 언남10길 10,서울 서초,1,스타벅스
564,서울특별시,은평구,스타벅스,연신내역사거리점,126.92204535942699,37.6186831321768,서울특별시 은평구 통일로 842,서울 은평,1,스타벅스
565,서울특별시,강서구,스타벅스,방화DT점,126.816370981046,37.5744392795603,서울특별시 강서구 방화대로 375,서울 강서,1,스타벅스
566,서울특별시,서초구,스타벅스,서초우성사거리점,127.029220063815,37.4935120699427,서울특별시 서초구 강남대로 343,서울 서초,1,스타벅스
567,서울특별시,강남구,스타벅스,압구정신원빌딩R점,127.03309175368099,37.527387399188,서울특별시 강남구 언주로 861,서울 강남,1,스타벅스
568,서울특별시,송파구,스타벅스,-점,127.12307571907301,37.4862896561624,서울특별시 송파구 송파대로 180,서울 송파,1,스타벅스
569,서울특별시,서초구,스타벅스,강남교보타워R점,127.02408842294201,37.503750825160296,서울특별시 서초구 강남대로 465,서울 서초,1,스타벅스
570,서울특별시,종로구,스타벅스,광화문우체국점,126.978082271963,37.569831931393104,서울특별시 종로구 종로 6,서울 종로,1,스타벅스
571,부산광역시,부산진구,스타벅스,서면로R점,129.05755921536002,35.1552676948429,부산광역시 부산진구 서면로 49-1,부산 부산진,1,스타벅스
572,서울특별시,금천구,스타벅스,가산에스케이점,126.880398452512,37.4814819459092,서울특별시 금천구 가산디지털1로 171,서울 금천,1,스타벅스
573,부산광역시,해운대구,스타벅스,-점,129.164457076305,35.1650859821377,부산광역시 해운대구 중동2로34번길 24,부산 해운대,1,스타벅스
574,서울특별시,종로구,스타벅스,독립문역점,126.961371477076,37.5716323367569,서울특별시 종로구 송월길 155,서울 종로,1,스타벅스
575,부산광역시,동래구,스타벅스,동래역점,129.080309082224,35.2057068930886,부산광역시 동래구 명륜로129번나길 9-2,부산 동래,1,스타벅스
576,부산광역시,금정구,스타벅스,금정구청DT점,129.092819363829,35.2385941334925,부산광역시 금정구 중앙대로 1728,부산 금정,1,스타벅스
577,서울특별시,송파구,스타벅스,문정법원로R점,127.12058066825199,37.487884013388296,서울특별시 송파구 송파대로 201,서울 송파,1,스타벅스
578,서울특별시,강남구,스타벅스,양재강남빌딩R점,127.03660895986401,37.4852467893652,서울특별시 강남구 남부순환로 2621,서울 강남,1,스타벅스
579,부산광역시,해운대구,스타벅스,더해운대R점,129.152865147608,35.1588240848214,부산광역시 해운대구 해운대해변로 197,부산 해운대,1,스타벅스
580,서울특별시,강서구,스타벅스,마곡사이언스타워R점,126.83387431159099,37.5605394004382,서울특별시 강서구 마곡동로 62,서울 강서,1,스타벅스
581,서울특별시,마포구,스타벅스,홍대입구역사거리점,126.92029614690901,37.5547387684549,서울특별시 마포구 양화로 125,서울 마포,1,스타벅스
582,서울특별시,서초구,스타벅스,서초구청점,127.030049982544,37.48442722472471,서울특별시 서초구 남부순환로 2557,서울 서초,1,스타벅스
583,서울특별시,은평구,스타벅스,구파발사거리점,126.919103095201,37.6396051116528,서울특별시 은평구 진관3로 21,서울 은평,1,스타벅스
584,서울특별시,용산구,스타벅스,한강진역점,127.001102780123,37.537104778724796,서울특별시 용산구 이태원로 252,서울 용산,1,스타벅스
585,서울특별시,강남구,스타벅스,봉은사로선정릉점,127.048500978939,37.51135666516829,서울특별시 강남구 봉은사로 446,서울 강남,1,스타벅스
586,서울특별시,서초구,스타벅스,방배다이치빌딩점,126.99607307299699,37.4843326178498,서울특별시 서초구 방배로 114,서울 서초,1,스타벅스
587,부산광역시,해운대구,스타벅스,수영강변DT점,129.119414691432,35.2039545311288,부산광역시 해운대구 수영강변대로 516,부산 해운대,1,스타벅스
588,서울특별시,영등포구,스타벅스,여의도화재보험점,126.92598089834298,37.5213799889039,서울특별시 영등포구 국제금융로6길 38,서울 영등포,1,스타벅스
589,서울특별시,강서구,스타벅스방화DT,방화DT점,126.816370981046,37.5744392795603,서울특별시 강서구 방화대로 375,서울 강서,1,스타벅스
590,서울특별시,송파구,스타벅스,송파개롱역점,127.13626162278,37.4969832953838,서울특별시 송파구 오금로 420,서울 송파,1,스타벅스
591,서울특별시,용산구,스타벅스,용산역써밋R점,126.96522007233999,37.5274519538612,서울특별시 용산구 한강대로 69,서울 용산,1,스타벅스
592,부산광역시,수영구,스타벅스,광안수변공원점,129.124700536939,35.1532027780993,부산광역시 수영구 민락수변로 29,부산 수영,1,스타벅스
593,서울특별시,강남구,스타벅스,삼성역섬유센터R점,127.060560942124,37.5075786596138,서울특별시 강남구 테헤란로 518,서울 강남,1,스타벅스
594,서울특별시,중구,스타벅스,착한빵점,127.01088131917,37.5523517113372,서울특별시 중구 동호로7길 31,서울 중구,1,스타벅스
595,서울특별시,금천구,스타벅스,미스리점,126.881124967202,37.472946900429896,서울특별시 금천구 가산디지털2로 53,서울 금천,1,스타벅스
596,서울특별시,양천구,스타벅스,등촌역점,126.86805054783501,37.5489513412167,서울특별시 양천구 공항대로 566,서울 양천,1,스타벅스
597,서울특별시,동작구,스타벅스,이수자이점,126.980908852661,37.484428051670704,서울특별시 동작구 사당로 300,서울 동작,1,스타벅스
598,서울특별시,종로구,스타벅스,미스리점,126.981659292931,37.580648295286395,서울특별시 종로구 북촌로5가길 27,서울 종로,1,스타벅스
599,서울특별시,강남구,스타벅스,대치대원빌딩R점,127.06264645768499,37.494565941596996,서울특별시 강남구 남부순환로 2947,서울 강남,1,스타벅스
600,서울특별시,서대문구,스타벅스,-점,126.911859060314,37.582341142203,서울특별시 서대문구 증가로29길 20-14,서울 서대문,1,스타벅스
601,울산광역시,중구,스타벅스,-점,129.307854941371,35.55532530368,울산광역시 중구 화진길 12-1,울산 중구,1,스타벅스
602,대구광역시,중구,스타벅스동성로중앙점,동성로중앙점,128.5966770941,35.8675078052018,대구광역시 중구 동성로5길 38,대구 중구,1,스타벅스
603,대구광역시,수성구,스타벅스대구법원점,대구법원점,128.627769586325,35.86453724446029,대구광역시 수성구 동대구로 376,대구 수성,1,스타벅스
604,대구광역시,달서구,스타벅스,대구상인DT점,128.533791042123,35.82279130566079,대구광역시 달서구 월곡로 334,대구 달서,1,스타벅스
605,울산광역시,남구,스타벅스울산삼산타워점,울산삼산타워점,129.336798688725,35.5395324314302,울산광역시 남구 삼산로 273,울산 남구,1,스타벅스
606,인천광역시,서구,스타벅스인천청라타워돔,인천청라타워돔점,126.652014362971,37.53388807553871,인천광역시 서구 중봉대로612번길 10-17,인천 서구,1,스타벅스
607,대구광역시,달서구,스타벅스,대구성서ICDT점,128.520117204754,35.850711377161396,대구광역시 달서구 달구벌대로 1393,대구 달서,1,스타벅스
608,광주광역시,동구,스타벅스,광주황금점,126.914596669305,35.1473415964027,광주광역시 동구 중앙로160번길 14,광주 동구,1,스타벅스
609,대전광역시,동구,스타벅스,대전터미널점,127.43806102246599,36.349936397084896,대전광역시 동구 동서대로1695번길 4,대전 동구,1,스타벅스
610,광주광역시,서구,스타벅스,상무치평점,126.85344761203001,35.1520334733201,광주광역시 서구 상무자유로 173,광주 서구,1,스타벅스
611,대전광역시,유성구,스타벅스,대전전민점,127.400514029135,36.3994576638341,대전광역시 유성구 유성대로 1722,대전 유성,1,스타벅스
612,광주광역시,광산구,스타벅스,광산수완점,126.824777749032,35.19040987165079,광주광역시 광산구 장신로 134,광주 광산,1,스타벅스
613,인천광역시,남동구,스타벅스,구월삼성화재점,126.70751646732201,37.451559814110105,인천광역시 남동구 남동대로 773,인천 남동,1,스타벅스
614,대전광역시,중구,스타벅스,대전중앙로역점,127.426601920943,36.3279454723366,대전광역시 중구 대종로 486,대전 중구,1,스타벅스
615,광주광역시,광산구,스타벅스,광주장덕점,126.819507827656,35.1911337975241,광주광역시 광산구 장신로 85,광주 광산,1,스타벅스
616,광주광역시,동구,스타벅스,충장일가점,126.918247489114,35.1467883403093,광주광역시 동구 서석로 43,광주 동구,1,스타벅스
617,대구광역시,달성군,스타벅스,대구죽곡점,128.46425782696699,35.8591602989892,대구광역시 달성군 다사읍 달구벌대로 861,대구 달성,1,스타벅스
618,인천광역시,연수구,스타벅스,송도점,126.650653848885,37.3975739615739,인천광역시 연수구 컨벤시아대로 60,인천 연수,1,스타벅스
619,대구광역시,중구,스타벅스,대구공평DT점,128.600745342969,35.8695515591633,대구광역시 중구 국채보상로 642,대구 중구,1,스타벅스
620,대전광역시,서구,스타벅스대전호텔,대전호텔점,127.38760866242201,36.3590975393155,대전광역시 서구 둔산중로134번길 13,대전 서구,1,스타벅스
621,광주광역시,북구,스타벅스,광주용두DT점,126.868574512463,35.212784555950996,광주광역시 북구 임방울대로 1016,광주 북구,1,스타벅스
622,울산광역시,중구,스타벅스,울산태화점,129.298381303248,35.5505786540484,울산광역시 중구 신기길 103,울산 중구,1,스타벅스
623,대구광역시,중구,스타벅스,동성로광장점,128.594172940819,35.867294885000604,대구광역시 중구 동성로 4,대구 중구,1,스타벅스
624,대전광역시,서구,스타벅스,대전대덕로점,127.380612151158,36.3533475658435,대전광역시 서구 대덕대로234번길 18,대전 서구,1,스타벅스
625,대전광역시,서구,스타벅스,대전시청역사거리점,127.38953279170299,36.3509871361072,대전광역시 서구 둔산로 142,대전 서구,1,스타벅스
626,인천광역시,남동구,스타벅스,인천구월점,126.701008677583,37.44620838857749,인천광역시 남동구 예술로 138,인천 남동,1,스타벅스
627,대전광역시,대덕구,스타벅스,대전송촌점,127.438044823728,36.3661408027969,대전광역시 대덕구 송촌북로36번길 36,대전 대덕,1,스타벅스
628,인천광역시,부평구,스타벅스,부평GM점,126.716208183935,37.5123210624832,인천광역시 부평구 부평대로 233,인천 부평,1,스타벅스
629,대전광역시,동구,스타벅스,대전터미널후문점,127.436724938484,36.3513630967449,대전광역시 동구 동서대로1695번길 43,대전 동구,1,스타벅스
630,대구광역시,서구,스타벅스,두류역점,128.556504905216,35.858254712294,대구광역시 서구 서대구로 3,대구 서구,1,스타벅스
631,대구광역시,수성구,스타벅스수성범어역점,수성범어역점,128.62306437030702,35.8589735422265,대구광역시 수성구 달구벌대로 2382-1,대구 수성,1,스타벅스
632,대구광역시,수성구,스타벅스,대구수성하이츠점,128.613094188458,35.8611609632535,대구광역시 수성구 수성로 393,대구 수성,1,스타벅스
633,대구광역시,동구,스타벅스,대구동촌유원지점,128.6531987141,35.8800936416114,대구광역시 동구 효동로2길 45,대구 동구,1,스타벅스
634,대구광역시,수성구,스타벅스대구시지점,대구시지점,128.708057529235,35.8395029502229,대구광역시 수성구 달구벌대로 3216,대구 수성,1,스타벅스
635,대전광역시,동구,스타벅스대전스타일마켓,대전스타일마켓점,127.43669956546302,36.3502454253977,대전광역시 동구 동서대로 1689,대전 동구,1,스타벅스
636,대구광역시,동구,스타벅스,반야월이마트점,128.727471953237,35.8708880148835,대구광역시 동구 안심로 389-2,대구 동구,1,스타벅스
637,광주광역시,서구,스타벅스,광주동림점,126.866181845862,35.171569122051004,광주광역시 서구 하남대로 672-1,광주 서구,1,스타벅스
638,대구광역시,수성구,스타벅스대구범어제니스,대구범어제니스점,128.62828425151,35.861001374714,대구광역시 수성구 달구벌대로 2435,대구 수성,1,스타벅스
639,대구광역시,중구,스타벅스,동성로로데오점,128.597859928811,35.8672405415574,대구광역시 중구 동성로5길 62,대구 중구,1,스타벅스
640,인천광역시,동구,스타벅스송림트레이더스,송림트레이더스점,126.660334215495,37.483047919250396,인천광역시 동구 봉수대로 82,인천 동구,1,스타벅스
641,대구광역시,동구,스타벅스,대구봉무점,128.639769954725,35.922041004033204,대구광역시 동구 팔공로51길 15-11,대구 동구,1,스타벅스
642,대전광역시,서구,스타벅스,대전둔산점,127.377260977952,36.3502388670403,대전광역시 서구 대덕대로 189,대전 서구,1,스타벅스
643,대전광역시,유성구,스타벅스,대전유성점,127.339567187139,36.354551739186896,대전광역시 유성구 온천서로 2,대전 유성,1,스타벅스
644,대전광역시,서구,스타벅스,대전시청사거리점,127.383550861569,36.3480363811137,대전광역시 서구 둔산남로 50,대전 서구,1,스타벅스
645,광주광역시,서구,스타벅스,광주상무대교점,126.848842022929,35.1548742291197,광주광역시 서구 상무중앙로 90,광주 서구,1,스타벅스
646,대구광역시,달서구,스타벅스,대구계명대점,128.49381114830098,35.8558517742415,대구광역시 달서구 계대동문로 13,대구 달서,1,스타벅스
647,대구광역시,달서구,스타벅스,대구성서점,128.51032515716005,35.8550707246958,대구광역시 달서구 이곡공원로 26,대구 달서,1,스타벅스
648,광주광역시,동구,스타벅스,충장서림점,126.91731953858401,35.148078055964,광주광역시 동구 충장로 93-5,광주 동구,1,스타벅스
649,인천광역시,계양구,스타벅스,인천작전점,126.721973525401,37.5271063759005,인천광역시 계양구 계양대로 37,인천 계양,1,스타벅스
650,울산광역시,남구,스타벅스,울산옥동점,129.289647722612,35.535503305037,울산광역시 남구 문수로 329,울산 남구,1,스타벅스
651,인천광역시,부평구,스타벅스동암역,동암역점,126.702311007793,37.47155978311471,인천광역시 부평구 동암광장로 14,인천 부평,1,스타벅스
652,대구광역시,수성구,스타벅스,대구만촌점,128.650236123286,35.8563689649214,대구광역시 수성구 달구벌대로 2636,대구 수성,1,스타벅스
653,울산광역시,남구,스타벅스,울산삼산로점,129.337321870326,35.53849914043221,울산광역시 남구 삼산로278번길 8,울산 남구,1,스타벅스
654,울산광역시,남구,스타벅스,울산대점,129.260215897732,35.5424661748374,울산광역시 남구 대학로84번길 5-3,울산 남구,1,스타벅스
655,인천광역시,서구,스타벅스,인천서구청DT점,126.676372792805,37.5422818254116,인천광역시 서구 서곶로 277,인천 서구,1,스타벅스
656,대전광역시,유성구,스타벅스,대전테크노밸리점,127.38976577047801,36.425286842483004,대전광역시 유성구 테크노4로 105,대전 유성,1,스타벅스
657,광주광역시,북구,스타벅스,광주운암DT점,126.87840433334999,35.1776410561905,광주광역시 북구 북문대로 78,광주 북구,1,스타벅스
658,대구광역시,남구,스타벅스,대구앞산점,128.579976552168,35.8353041044139,대구광역시 남구 현충로 30,대구 남구,1,스타벅스
659,대전광역시,서구,스타벅스,대전관저점,127.33793514307699,36.29856606700649,대전광역시 서구 관저로 142,대전 서구,1,스타벅스
660,울산광역시,북구,스타벅스,울산화봉점,129.367350543941,35.5886081327382,울산광역시 북구 화봉로 75,울산 북구,1,스타벅스
661,대구광역시,수성구,스타벅스,대구삼성화재점,128.62625435726298,35.8661675298147,대구광역시 수성구 동대구로 401,대구 수성,1,스타벅스
662,인천광역시,서구,스타벅스,인천청라점,126.65202400738899,37.5320951581792,인천광역시 서구 중봉대로586번길 19,인천 서구,1,스타벅스
663,인천광역시,부평구,스타벅스인천갈산DT,인천갈산DT점,126.73208043024799,37.5188447761935,인천광역시 부평구 장제로 371,인천 부평,1,스타벅스
664,광주광역시,광산구,스타벅스,광주첨단점,126.84335333676201,35.2146103759596,광주광역시 광산구 첨단중앙로 104,광주 광산,1,스타벅스
665,인천광역시,부평구,스타벅스,부평사거리점,126.721976300472,37.493777355067394,인천광역시 부평구 부평문화로 52,인천 부평,1,스타벅스
666,대구광역시,동구,스타벅스,대구팔공산점,128.63640918329,35.9879714511258,대구광역시 동구 파계로 650,대구 동구,1,스타벅스
667,대전광역시,서구,스타벅스,대전탄방점,127.387897278192,36.34642746069179,대전광역시 서구 문정로 78,대전 서구,1,스타벅스
668,광주광역시,동구,스타벅스,조선대점,126.93018309285601,35.144613784913396,광주광역시 동구 지산로 3,광주 동구,1,스타벅스
669,대구광역시,달서구,스타벅스,대구감삼DT점,128.536681609756,35.8444644422954,대구광역시 달서구 와룡로 131,대구 달서,1,스타벅스
670,대전광역시,서구,스타벅스월평트레이더스,월평트레이더스점,127.362928278008,36.3576977454764,대전광역시 서구 한밭대로 580,대전 서구,1,스타벅스
671,대구광역시,달서구,스타벅스,대구성당못역점,128.556894236453,35.837927980525706,대구광역시 달서구 구마로 265,대구 달서,1,스타벅스
672,광주광역시,동구,스타벅스,광주충장로점,126.914920529911,35.1493996685685,광주광역시 동구 충장로 65,광주 동구,1,스타벅스
673,광주광역시,서구,스타벅스,광주금호DT점,126.85765771020701,35.142130961854704,광주광역시 서구 운천로109번길 1,광주 서구,1,스타벅스
674,대구광역시,달서구,스타벅스,대구상인역점,128.536549606963,35.8182813761888,대구광역시 달서구 월배로 210,대구 달서,1,스타벅스
675,대구광역시,북구,스타벅스,경북대점,128.608571351382,35.8923245720595,대구광역시 북구 대학로 75,대구 북구,1,스타벅스
676,울산광역시,동구,스타벅스,울산테라스파크점,129.428856322972,35.499883147873796,울산광역시 동구 방어진순환도로 652,울산 동구,1,스타벅스
677,인천광역시,남동구,스타벅스,구월로데오점,126.70216244965599,37.4441847227165,인천광역시 남동구 인하로 497-22,인천 남동,1,스타벅스
678,광주광역시,서구,스타벅스광주신세계패션몰,광주신세계패션몰점,126.882076399765,35.1588090209153,광주광역시 서구 죽봉대로 61,광주 서구,1,스타벅스
679,대전광역시,유성구,스타벅스,충남대정문점,127.344641126456,36.360672095575,대전광역시 유성구 대학로 82,대전 유성,1,스타벅스
680,울산광역시,중구,스타벅스,울산성남동점,129.32121188413998,35.5539989584888,울산광역시 중구 젊음의거리 74,울산 중구,1,스타벅스
681,인천광역시,연수구,스타벅스송도센트럴파크,송도센트럴파크점,126.641856897657,37.393769971245796,인천광역시 연수구 센트럴로 194,인천 연수,1,스타벅스
682,울산광역시,남구,스타벅스,울산삼산대로점,129.335105707021,35.53918165179621,울산광역시 남구 삼산로 257,울산 남구,1,스타벅스
683,광주광역시,광산구,스타벅스,광주하남점,126.810316720045,35.1625513632478,광주광역시 광산구 사암로216번길 38-16,광주 광산,1,스타벅스
684,광주광역시,동구,스타벅스,광주무등산점,126.954287698059,35.1338812530273,광주광역시 동구 증심사길 16,광주 동구,1,스타벅스
685,인천광역시,연수구,스타벅스,연수이마트점,126.681109860775,37.4042068908531,인천광역시 연수구 경원대로 184,인천 연수,1,스타벅스
686,대전광역시,동구,스타벅스,대전가오점,127.456286009766,36.3069496982665,대전광역시 동구 동구청로 101,대전 동구,1,스타벅스
687,광주광역시,북구,스타벅스,광주첨단신용점,126.86406413006901,35.2070005503629,광주광역시 북구 첨단연신로 101,광주 북구,1,스타벅스
688,대전광역시,서구,스타벅스,대전수침교DT점,127.39678635877002,36.3350267712959,대전광역시 서구 계룡로 692,대전 서구,1,스타벅스
689,인천광역시,중구,스타벅스,인천공항입국점,126.42768975715201,37.458331260033795,인천광역시 중구 공항로 272,인천 중구,1,스타벅스
690,울산광역시,남구,스타벅스울산신복점,울산신복점,129.26284978502,35.547981705293296,울산광역시 남구 대학로 152,울산 남구,1,스타벅스
691,인천광역시,서구,스타벅스,인천당하DT점,126.675424232948,37.59330473372179,인천광역시 서구 원당대로 668,인천 서구,1,스타벅스
692,인천광역시,남구,스타벅스,-점,126.65031153558901,37.4688688069756,인천광역시 남구 석정로 137,인천 남구,1,스타벅스
693,인천광역시,부평구,스타벅스,-점,126.699593691084,37.47375545610271,인천광역시 부평구 열우물로 66,인천 부평,1,스타벅스
694,인천광역시,남동구,스타벅스,-점,126.713498247284,37.46325745664471,인천광역시 남동구 남동대로916번길 94,인천 남동,1,스타벅스
695,인천광역시,남구,스타벅스,-점,126.63787935041599,37.451894933397895,인천광역시 남구 낙섬중로 42-1,인천 남구,1,스타벅스
696,인천광역시,중구,스타벅스,-점,126.605384610832,37.4544262200223,인천광역시 중구 축항대로86번길 28,인천 중구,1,스타벅스
697,대구광역시,수성구,스타벅스,수성레이크점,128.62173069978002,35.825703542102104,대구광역시 수성구 수성못길 4,대구 수성,1,스타벅스
698,광주광역시,광산구,스타벅스,-점,126.847697357185,35.2196544264927,광주광역시 광산구 임방울대로825번길 21-27,광주 광산,1,스타벅스
699,대구광역시,수성구,스타벅스,-점,128.626337002249,35.8625978671591,대구광역시 수성구 동대구로 359,대구 수성,1,스타벅스
700,인천광역시,남구,스타벅스,-점,126.679848083691,37.4683465393956,인천광역시 남구 길파로 30,인천 남구,1,스타벅스
701,인천광역시,남구,스타벅스,신세계인천2층점,126.70126538963899,37.4424719089244,인천광역시 남구 연남로 35,인천 남구,1,스타벅스
702,대구광역시,서구,스타벅스,-점,128.564950952493,35.8876254696388,대구광역시 서구 서대구로62길 83,대구 서구,1,스타벅스
703,대구광역시,달성군,스타벅스,-점,128.39779561065,35.8799670743226,대구광역시 달성군 하빈면 하목정길 45,대구 달성,1,스타벅스
704,인천광역시,부평구,스타벅스,-점,126.727451017419,37.504351489186796,인천광역시 부평구 길주남로 54,인천 부평,1,스타벅스
705,인천광역시,부평구,스타벅스,-점,126.696517171835,37.4731899455232,인천광역시 부평구 배곶북로 19,인천 부평,1,스타벅스
706,인천광역시,남구,스타벅스,-점,126.68100440922501,37.4482123677319,인천광역시 남구 인하로 295-1,인천 남구,1,스타벅스
707,인천광역시,남동구,스타벅스,-점,126.72241731235701,37.451938096838,인천광역시 남동구 구월남로 294,인천 남동,1,스타벅스
708,인천광역시,서구,스타벅스,-점,126.671794959835,37.5018015470379,인천광역시 서구 가정로 191,인천 서구,1,스타벅스
709,대구광역시,남구,스타벅스,-점,128.569179181283,35.8454145402468,대구광역시 남구 두류공원로20길 10-2,대구 남구,1,스타벅스
710,대전광역시,대덕구,스타벅스,-점,127.429330216926,36.4469950405009,대전광역시 대덕구 신탄진로 779,대전 대덕,1,스타벅스
711,인천광역시,서구,스타벅스,-점,126.67455100083001,37.517348145887105,인천광역시 서구 원창로 226-3,인천 서구,1,스타벅스
712,인천광역시,남구,스타벅스,-점,126.686032435547,37.4605494665566,인천광역시 남구 주안동로 26,인천 남구,1,스타벅스
713,대구광역시,중구,스타벅스,동성로점,128.59593561602,35.867565564692704,대구광역시 중구 동성로5길 26,대구 중구,1,스타벅스
714,대구광역시,중구,스타벅스대구반월당점,대구반월당점,128.591851543249,35.866341927814204,대구광역시 중구 달구벌대로 2085,대구 중구,1,스타벅스
715,대전광역시,중구,스타벅스,대전세이1층점,127.40880280715,36.3206307062252,대전광역시 중구 계백로 1700,대전 중구,1,스타벅스
716,울산광역시,동구,스타벅스,현대동구점,129.43134802935,35.52166505232429,울산광역시 동구 방어진순환도로 899,울산 동구,1,스타벅스
717,광주광역시,남구,스타벅스,봉선점,126.914330094527,35.1227852661879,광주광역시 남구 봉선로 176,광주 남구,1,스타벅스
718,광주광역시,북구,스타벅스,광주용봉점,126.895187410411,35.1786696488865,광주광역시 북구 저불로 45,광주 북구,1,스타벅스
719,인천광역시,부평구,스타벅스,부평점,126.724490519331,37.4915609612653,인천광역시 부평구 경원대로 1397,인천 부평,1,스타벅스
720,울산광역시,남구,스타벅스,울산공업탑점,129.310840278266,35.5334181045392,울산광역시 남구 삼산로 27,울산 남구,1,스타벅스
721,광주광역시,광산구,스타벅스,광주신가DT점,126.830044896848,35.179148592653604,광주광역시 광산구 목련로 335,광주 광산,1,스타벅스
722,대구광역시,달서구,스타벅스,대구두류DT점,128.561558096915,35.858871143345496,대구광역시 달서구 달구벌대로 1796,대구 달서,1,스타벅스
723,대전광역시,서구,스타벅스타임월드점,타임월드점,127.37817276323601,36.35186586230329,대전광역시 서구 대덕대로 211,대전 서구,1,스타벅스
724,인천광역시,연수구,스타벅스송도센트럴파크점,송도센트럴파크점,126.641856897657,37.393769971245796,인천광역시 연수구 센트럴로 194,인천 연수,1,스타벅스
725,대전광역시,서구,스타벅스,월평트레이더스점,127.362928278008,36.3576977454764,대전광역시 서구 한밭대로 580,대전 서구,1,스타벅스
726,광주광역시,서구,스타벅스,상무역점,126.847947452692,35.147483394240396,광주광역시 서구 상무중앙로 7,광주 서구,1,스타벅스
727,대구광역시,수성구,스타벅스,수성리더스점,128.622700469374,35.8379205058804,대구광역시 수성구 동대구로 95,대구 수성,1,스타벅스
728,광주광역시,광산구,스타벅스,광주쌍암점,126.84241936063299,35.219279577997,광주광역시 광산구 첨단중앙로 158,광주 광산,1,스타벅스
729,인천광역시,연수구,스타벅스,송도커넬워크점,126.636899053684,37.39938945143809,인천광역시 연수구 아트센터대로 131,인천 연수,1,스타벅스
730,대전광역시,유성구,스타벅스,대전노은점,127.31955887860501,36.3734737429302,대전광역시 유성구 은구비남로33번길 26,대전 유성,1,스타벅스
731,울산광역시,남구,스타벅스,울산디자인거리점,129.33877749961098,35.5404929025695,울산광역시 남구 삼산중로74번길 30-1,울산 남구,1,스타벅스
732,인천광역시,남구,스타벅스,인하대점,126.65496887223,37.4518383950045,인천광역시 남구 인하로 59,인천 남구,1,스타벅스
733,대구광역시,수성구,스타벅스,동아수성점,128.640375439966,35.821080998401,대구광역시 수성구 지범로 191,대구 수성,1,스타벅스
734,인천광역시,남동구,스타벅스,인천예술회관역점,126.70140395171002,37.4494925033669,인천광역시 남동구 예술로 174,인천 남동,1,스타벅스
735,광주광역시,북구,스타벅스,전남대점,126.91249820969101,35.1772038179806,광주광역시 북구 우치로 110,광주 북구,1,스타벅스
736,인천광역시,부평구,스타벅스,부평로데오점,126.724894260238,37.493088063368,인천광역시 부평구 시장로 21,인천 부평,1,스타벅스
737,인천광역시,남구,스타벅스,주안역점,126.680697063593,37.4637787831324,인천광역시 남구 주안로 100,인천 남구,1,스타벅스
738,대구광역시,북구,스타벅스,대구침산DT점,128.591953455867,35.8874864191681,대구광역시 북구 침산로 126,대구 북구,1,스타벅스
739,대전광역시,서구,스타벅스,대전월평점,127.37729761340799,36.361026993874795,대전광역시 서구 청사로123번길 25,대전 서구,1,스타벅스
740,대구광역시,달서구,스타벅스,달서죽전점,128.537986712625,35.849208606898706,대구광역시 달서구 와룡로 190,대구 달서,1,스타벅스
741,대구광역시,동구,스타벅스,동대구터미널점,128.628603754871,35.8762230054311,대구광역시 동구 동부로30길 12,대구 동구,1,스타벅스
742,인천광역시,부평구,스타벅스,부평시장역점,126.72296615767901,37.49674344185321,인천광역시 부평구 부평대로 60,인천 부평,1,스타벅스
743,인천광역시,부평구,스타벅스,인천삼산점,126.734177433202,37.5072079502966,인천광역시 부평구 길주로 643,인천 부평,1,스타벅스
744,대전광역시,중구,스타벅스,은행동점,127.42764069277099,36.3290680062403,대전광역시 중구 중앙로 164,대전 중구,1,스타벅스
745,대전광역시,서구,스타벅스,둔산은하수점,127.377796432561,36.3529544138761,대전광역시 서구 둔산로31번길 28,대전 서구,1,스타벅스
746,광주광역시,남구,스타벅스,광주진월점,126.89731713459801,35.1258045842139,광주광역시 남구 서문대로 745,광주 남구,1,스타벅스
747,인천광역시,부평구,스타벅스부평역점,부평역점,126.722106046514,37.4914721186081,인천광역시 부평구 경원대로 1377,인천 부평,1,스타벅스
748,광주광역시,서구,스타벅스,상무점,126.84792665269899,35.153630633302996,광주광역시 서구 상무중앙로 75,광주 서구,1,스타벅스
749,광주광역시,서구,스타벅스,광주신세계5층점,126.879901057815,35.1605646581878,광주광역시 서구 무진대로 904,광주 서구,1,스타벅스
750,인천광역시,남구,스타벅스신세계인천,신세계인천점,126.70126538963899,37.4424719089244,인천광역시 남구 연남로 35,인천 남구,1,스타벅스
751,대전광역시,유성구,스타벅스,대전관평동점,127.39263051878599,36.4254546590999,대전광역시 유성구 테크노중앙로 68,대전 유성,1,스타벅스
752,대구광역시,중구,스타벅스대구중앙로점,대구중앙로점,128.593364622387,35.867298879815394,대구광역시 중구 남성로 61,대구 중구,1,스타벅스
753,세종특별자치시,세종특별자치시,스타벅스,세종첫마을점,127.26181227434401,36.4802331481955,세종특별자치시 세종특별자치시 한누리대로 169,세종,1,스타벅스
754,대구광역시,중구,스타벅스,중앙로점,128.593808814093,35.8674679365005,대구광역시 중구 중앙대로 386,대구 중구,1,스타벅스
755,인천광역시,동구,스타벅스,송림트레이더스점,126.660334215495,37.483047919250396,인천광역시 동구 봉수대로 82,인천 동구,1,스타벅스
756,인천광역시,남동구,스타벅스인천논현점,인천논현점,126.72482219528798,37.399460394205704,인천광역시 남동구 논고개로 93,인천 남동,1,스타벅스
757,대전광역시,서구,스타벅스,대전만년점,127.382003013439,36.367675586322,대전광역시 서구 만년로 81,대전 서구,1,스타벅스
758,세종특별자치시,세종특별자치시,스타벅스,세종이마트점,127.250987935817,36.4708921174436,세종특별자치시 세종특별자치시 금송로 687,세종,1,스타벅스
759,인천광역시,계양구,스타벅스,인천계양점,126.734995187174,37.5398339232411,인천광역시 계양구 장제로 808,인천 계양,1,스타벅스
760,울산광역시,남구,스타벅스,-점,129.322680954482,35.5413735592559,울산광역시 남구 돋질로157번길 8,울산 남구,1,스타벅스
761,대구광역시,달서구,스타벅스대구이곡점,대구이곡점,128.50410353283502,35.85516909294861,대구광역시 달서구 계대동문로 108,대구 달서,1,스타벅스
762,대구광역시,북구,스타벅스,대구동천점,128.56053133214,35.942563418242,대구광역시 북구 동천로 123,대구 북구,1,스타벅스
763,대전광역시,서구,스타벅스,-점,127.393558448866,36.337588016126396,대전광역시 서구 계룡로 650,대전 서구,1,스타벅스
764,대구광역시,달서구,스타벅스,-점,128.533754474213,35.8437744420661,대구광역시 달서구 장기로 244,대구 달서,1,스타벅스
765,광주광역시,서구,스타벅스,광주상무시민로점,126.854471109981,35.154963638621304,광주광역시 서구 상무시민로 142,광주 서구,1,스타벅스
766,대구광역시,동구,스타벅스,동대구로DT점,128.627266518866,35.868145155244,대구광역시 동구 동대구로 422,대구 동구,1,스타벅스
767,대구광역시,수성구,스타벅스,-점,128.624450557562,35.835243502286296,대구광역시 수성구 동대구로 56,대구 수성,1,스타벅스
768,대구광역시,달서구,스타벅스,대구수목원점,128.52025410299498,35.8072395535126,대구광역시 달서구 화암로 379,대구 달서,1,스타벅스
769,광주광역시,북구,스타벅스,광주북구청점,126.91444081488399,35.1747694714569,광주광역시 북구 서방로9번길 30,광주 북구,1,스타벅스
770,대구광역시,중구,스타벅스,동아백화점,128.596925533668,35.8725810133424,대구광역시 중구 경상감영길 171,대구 중구,1,스타벅스
771,광주광역시,서구,스타벅스,광주풍암점,126.879638628172,35.1268593322891,광주광역시 서구 풍암2로 8,광주 서구,1,스타벅스
772,대구광역시,중구,스타벅스반월당,반월당점,128.591851543249,35.866341927814204,대구광역시 중구 달구벌대로 2085,대구 중구,1,스타벅스
773,울산광역시,남구,스타벅스울산남구청DT,울산남구청DT점,129.324689883737,35.544172600405204,울산광역시 남구 번영로 215,울산 남구,1,스타벅스
774,울산광역시,울주군,스타벅스,울산간절곶점,129.359221697871,35.3590273657614,울산광역시 울주군 서생면 간절곶1길 33,울산 울주,1,스타벅스
775,인천광역시,남구,스타벅스인천용현DT점,인천용현DT점,126.632570192138,37.4523652237971,인천광역시 남구 아암대로 107,인천 남구,1,스타벅스
776,대구광역시,중구,스타벅스,대구교보문고점,128.59482887960502,35.870608504821604,대구광역시 중구 국채보상로 586,대구 중구,1,스타벅스
777,대전광역시,유성구,스타벅스,대전엑스포점,127.39047149728201,36.3763440126597,대전광역시 유성구 엑스포로97번길 40,대전 유성,1,스타벅스
778,대전광역시,대덕구,스타벅스,대전ICDT점,127.444425210613,36.3542831488655,대전광역시 대덕구 동서대로 1776,대전 대덕,1,스타벅스
779,울산광역시,남구,스타벅스울산중리사거리DT,울산중리사거리DT점,129.338613299786,35.5438836373558,울산광역시 남구 돋질로 310,울산 남구,1,스타벅스
780,광주광역시,남구,스타벅스,광주봉선중앙점,126.911146621941,35.1253977939019,광주광역시 남구 봉선중앙로 51,광주 남구,1,스타벅스
781,대전광역시,대덕구,스타벅스대전신탄진DT점,대전신탄진DT점,127.41999194714899,36.4486894209093,대전광역시 대덕구 덕암북로 1,대전 대덕,1,스타벅스
782,대전광역시,서구,스타벅스대전호텔점,대전호텔점,127.38760866242201,36.3590975393155,대전광역시 서구 둔산중로134번길 13,대전 서구,1,스타벅스
783,대구광역시,남구,스타벅스,대구캠프워커점,128.590042819835,35.8359401163061,대구광역시 남구 대명로 240,대구 남구,1,스타벅스
784,울산광역시,남구,스타벅스울산남구청DT점,울산남구청DT점,129.324689883737,35.544172600405204,울산광역시 남구 번영로 215,울산 남구,1,스타벅스
785,대전광역시,동구,스타벅스,대전스타일마켓점,127.43669956546302,36.3502454253977,대전광역시 동구 동서대로 1689,대전 동구,1,스타벅스
786,광주광역시,남구,스타벅스광주방림DT점,광주방림DT점,126.917635446435,35.134992662464796,광주광역시 남구 대남대로 67,광주 남구,1,스타벅스
787,울산광역시,남구,스타벅스울산중리사거리DT점,울산중리사거리DT점,129.338613299786,35.5438836373558,울산광역시 남구 돋질로 310,울산 남구,1,스타벅스
788,광주광역시,서구,스타벅스,신세계광주패션몰점,126.882076399765,35.1588090209153,광주광역시 서구 죽봉대로 61,광주 서구,1,스타벅스
789,대구광역시,수성구,스타벅스,대구범어제니스점,128.62828425151,35.861001374714,대구광역시 수성구 달구벌대로 2435,대구 수성,1,스타벅스
790,대구광역시,수성구,스타벅스대구황금DT점,대구황금DT점,128.625786630133,35.83905817228,대구광역시 수성구 청수로 164,대구 수성,1,스타벅스
791,대전광역시,서구,스타벅스,대전목원대점,127.338583838334,36.3311769488524,대전광역시 서구 도안북로93번길 25,대전 서구,1,스타벅스
792,울산광역시,남구,스타벅스,울산시청사거리DT점,129.313579756831,35.5371016945147,울산광역시 남구 중앙로 180,울산 남구,1,스타벅스
793,인천광역시,연수구,스타벅스,인천연수점,126.677801052339,37.4150995380404,인천광역시 연수구 용담로 115,인천 연수,1,스타벅스
794,인천광역시,연수구,스타벅스송도캠퍼스타운역,송도캠퍼스타운역점,126.66511116665001,37.389223244440004,인천광역시 연수구 송도과학로27번길 55,인천 연수,1,스타벅스
795,대전광역시,서구,스타벅스,대전법원점,127.387431226361,36.353301603827,대전광역시 서구 둔산로123번길 43,대전 서구,1,스타벅스
796,대전광역시,서구,스타벅스대전둔산로점,대전둔산로점,127.377273603109,36.354249487712,대전광역시 서구 대덕대로241번길 35,대전 서구,1,스타벅스
797,대구광역시,달서구,스타벅스대구도원DT점,대구도원DT점,128.54809689407,35.8077287542328,대구광역시 달서구 상화로 314,대구 달서,1,스타벅스
798,울산광역시,남구,스타벅스,울산센트럴점,129.33210119510701,35.5388723828051,울산광역시 남구 삼산로 231,울산 남구,1,스타벅스
799,대구광역시,북구,스타벅스,대구칠곡대로DT점,128.547898589587,35.92690281445971,대구광역시 북구 칠곡중앙대로 348,대구 북구,1,스타벅스
800,세종특별자치시,세종특별자치시,스타벅스세종어진점,세종어진점,127.261123855436,36.5080675903696,세종특별자치시 세종특별자치시 한누리대로 499,세종,1,스타벅스
801,인천광역시,남동구,스타벅스인천서창점,인천서창점,126.749816863515,37.423884363997004,인천광역시 남동구 서창남로 51,인천 남동,1,스타벅스
802,대구광역시,달서구,스타벅스대구월성점,대구월성점,128.525788251872,35.824277721671706,대구광역시 달서구 조암로 41,대구 달서,1,스타벅스
803,대전광역시,서구,스타벅스대전가수원DT점,대전가수원DT점,127.348926136094,36.303700483042604,대전광역시 서구 계백로 1128,대전 서구,1,스타벅스
804,세종특별자치시,세종특별자치시,스타벅스세종종촌점,세종종촌점,127.24938440647699,36.504101042818796,세종특별자치시 세종특별자치시 도움3로 105-10,세종,1,스타벅스
805,대구광역시,중구,스타벅스,대구중앙로역점,128.59436440616005,35.870691922571204,대구광역시 중구 국채보상로 582,대구 중구,1,스타벅스
806,대구광역시,수성구,스타벅스,대구중동네거리DT점,128.613945748011,35.8409218949621,대구광역시 수성구 청수로 51,대구 수성,1,스타벅스
807,광주광역시,광산구,스타벅스광주송정역,광주송정역점,126.791426873367,35.1380362024788,광주광역시 광산구 상무대로205번길 6,광주 광산,1,스타벅스
808,대구광역시,중구,스타벅스,대구계산점,128.589726514058,35.8664785623564,대구광역시 중구 달구벌대로415길 1,대구 중구,1,스타벅스
809,대전광역시,중구,스타벅스대전태평점,대전태평점,127.393401847791,36.3233023711898,대전광역시 중구 태평로 71,대전 중구,1,스타벅스
810,인천광역시,연수구,스타벅스인천송도DT,인천송도DT점,126.644265701429,37.3848052477512,인천광역시 연수구 하모니로 136,인천 연수,1,스타벅스
811,대구광역시,달서구,스타벅스대구도원점DT점,대구도원점DT점,128.54808589132298,35.80773781772871,대구광역시 달서구 상화로 314,대구 달서,1,스타벅스
812,대구광역시,북구,스타벅스대구유통단지점,대구유통단지점,128.613303992908,35.9056219604188,대구광역시 북구 유통단지로8길 78,대구 북구,1,스타벅스
813,광주광역시,광산구,스타벅스광주송정역점,광주송정역점,126.791426873367,35.1380362024788,광주광역시 광산구 상무대로205번길 6,광주 광산,1,스타벅스
814,울산광역시,북구,스타벅스울산진장점,울산진장점,129.356471000208,35.56243116235129,울산광역시 북구 진장17길 10,울산 북구,1,스타벅스
815,울산광역시,중구,스타벅스울산성남삼거리점,울산성남삼거리점,129.320372278046,35.5532420454865,울산광역시 중구 젊음의2거리 33,울산 중구,1,스타벅스
816,광주광역시,서구,스타벅스,광주상무중앙로점,126.84896168809601,35.1510535001731,광주광역시 서구 상무중앙로 46,광주 서구,1,스타벅스
817,대구광역시,서구,스타벅스대구평리DT점,대구평리DT점,128.555373863352,35.8659482489525,대구광역시 서구 서대구로 89,대구 서구,1,스타벅스
818,인천광역시,연수구,스타벅스송도트리플점,송도트리플점,126.65916187934401,37.380875362941296,인천광역시 연수구 송도과학로16번길 33-1,인천 연수,1,스타벅스
819,광주광역시,남구,스타벅스,광주서문대로점,126.898648117586,35.119029196205204,광주광역시 남구 서문대로 665,광주 남구,1,스타벅스
820,대구광역시,수성구,스타벅스대구수성네거리DT점,대구수성네거리DT점,128.618038245302,35.8604776686317,대구광역시 수성구 들안로 342,대구 수성,1,스타벅스
821,울산광역시,북구,스타벅스,울산정자비치DT점,129.441195774978,35.6271247739841,울산광역시 북구 동해안로 1601,울산 북구,1,스타벅스
822,광주광역시,남구,스타벅스,광주방림DT점,126.917746234277,35.1349125265101,광주광역시 남구 대남대로 67,광주 남구,1,스타벅스
823,세종특별자치시,세종특별자치시,스타벅스,세종청사점,127.27060258555599,36.5044219087118,세종특별자치시 세종특별자치시 도움8로 81,세종,1,스타벅스
824,대전광역시,유성구,스타벅스,대전유성구청점,127.35769872839799,36.3622300550635,대전광역시 유성구 어은로 42,대전 유성,1,스타벅스
825,대전광역시,유성구,스타벅스,대전도안DT점,127.339982922229,36.3514988115428,대전광역시 유성구 도안대로 573,대전 유성,1,스타벅스
826,인천광역시,남동구,스타벅스간석DT점,간석DT점,126.690686923358,37.4697646319521,인천광역시 남동구 경원대로 974,인천 남동,1,스타벅스
827,대구광역시,달성군,스타벅스대구테크노폴리스점,대구테크노폴리스점,128.45901792978,35.6931712047899,대구광역시 달성군 유가면 테크노상업로 84,대구 달성,1,스타벅스
828,광주광역시,광산구,스타벅스,광주수완DT점,126.81906001248699,35.20310869005571,광주광역시 광산구 임방울대로 487,광주 광산,1,스타벅스
829,대전광역시,중구,스타벅스대전대사디티점,대전대사디티점,127.41741424600299,36.3187983737849,대전광역시 중구 계룡로 949,대전 중구,1,스타벅스
830,대전광역시,서구,스타벅스대전둔산남로점,대전둔산남로점,127.388647991891,36.3487294898058,대전광역시 서구 둔산남로 100,대전 서구,1,스타벅스
831,대구광역시,달서구,스타벅스,대구진천역점,128.524383764629,35.8143421535919,대구광역시 달서구 월배로 91,대구 달서,1,스타벅스
832,대구광역시,달서구,스타벅스,대구진천역점,128.524351219555,35.814441442261,대구광역시 달서구 월배로 91,대구 달서,1,스타벅스
833,광주광역시,북구,스타벅스,광주일곡점,126.898086272262,35.205467130946005,광주광역시 북구 설죽로 518,광주 북구,1,스타벅스
834,인천광역시,남동구,스타벅스,인천터미널사거리점,126.70085508310899,37.4452876433222,인천광역시 남동구 예술로 126,인천 남동,1,스타벅스
835,대전광역시,유성구,스타벅스,대전장대점,127.336261790505,36.3619867230238,대전광역시 유성구 유성대로 781,대전 유성,1,스타벅스
836,울산광역시,남구,스타벅스,울산시청사거리DT점,129.313525807283,35.537174386977,울산광역시 남구 중앙로 180,울산 남구,1,스타벅스
837,인천광역시,남동구,스타벅스인천간석DT점,인천간석DT점,126.69081219344801,37.4697119581669,인천광역시 남동구 경원대로 974,인천 남동,1,스타벅스
838,대구광역시,동구,스타벅스신세계백화점대구점,신세계백화점대구점,128.629248658652,35.877950161861,대구광역시 동구 동부로 149,대구 동구,1,스타벅스
839,세종특별자치시,세종특별자치시,스타벅스세종새롬점,세종새롬점,127.251003809406,36.4866365695244,세종특별자치시 세종특별자치시 새롬중앙로 64,세종,1,스타벅스
840,인천광역시,서구,스타벅스,-점,126.67567757982599,37.541922632161395,인천광역시 서구 심곡로56번길 2,인천 서구,1,스타벅스
841,인천광역시,부평구,스타벅스동암역점,동암역점,126.702311007793,37.47155978311471,인천광역시 부평구 동암광장로 14,인천 부평,1,스타벅스
842,광주광역시,남구,스타벅스,광주서문대로점,126.898623025126,35.1192633305333,광주광역시 남구 서문대로 665,광주 남구,1,스타벅스
843,광주광역시,광산구,스타벅스광주흑석DT,광주흑석DT점,126.807800767498,35.1770027365308,광주광역시 광산구 사암로 367,광주 광산,1,스타벅스
844,대전광역시,대덕구,스타벅스,대전한남대DT점,127.423135377402,36.3585082703083,대전광역시 대덕구 한밭대로 1122,대전 대덕,1,스타벅스
845,대구광역시,수성구,스타벅스,대구중동DT점,128.612556374814,35.8473824711491,대구광역시 수성구 수성로 243,대구 수성,1,스타벅스
846,울산광역시,중구,스타벅스,울산성안점,129.324231024709,35.5779585661571,울산광역시 중구 성안12길 45,울산 중구,1,스타벅스
847,인천광역시,남동구,스타벅스,인천구월아시아드점,126.708449034287,37.442676778135294,인천광역시 남동구 인하로 556,인천 남동,1,스타벅스
848,광주광역시,북구,스타벅스,광주매곡DT점,126.898703285055,35.1898608042462,광주광역시 북구 설죽로 339,광주 북구,1,스타벅스
849,울산광역시,북구,스타벅스,울산북구청DT점,129.358954953022,35.5834575436755,울산광역시 북구 산업로 1011-6,울산 북구,1,스타벅스
850,울산광역시,중구,스타벅스,울산성안점,129.324395147451,35.5778756456257,울산광역시 중구 성안1길 133,울산 중구,1,스타벅스
851,광주광역시,북구,파스타벅스,스점,126.896472971947,35.1867127013893,광주광역시 북구 매곡로 20,광주 북구,1,스타벅스
852,광주광역시,동구,스타벅스,광주지산유원지입구점,126.940908608505,35.154479109172804,광주광역시 동구 무등로 592,광주 동구,1,스타벅스
853,광주광역시,광산구,스타벅스,광주흑석DT점,126.807800767498,35.1770027365308,광주광역시 광산구 사암로 367,광주 광산,1,스타벅스
854,대구광역시,달성군,스타벅스,-점,128.399343614948,35.8794662073561,대구광역시 달성군 하빈면 하목정길 30,대구 달성,1,스타벅스
855,인천광역시,남동구,스타벅스인천터미널사거리점,인천터미널사거리점,126.700869497592,37.44510759453,인천광역시 남동구 예술로 126,인천 남동,1,스타벅스
856,대구광역시,수성구,스타벅스,대구중동DT점,128.612512025319,35.8473736839616,대구광역시 수성구 수성로 243,대구 수성,1,스타벅스
857,울산광역시,동구,스타벅스,미스리점,129.419971837176,35.4998258143476,울산광역시 동구 대송1길 31,울산 동구,1,스타벅스
858,대구광역시,북구,스타벅스,대구칠성DT점,128.59614794983102,35.8796512312154,대구광역시 북구 중앙대로 526,대구 북구,1,스타벅스
859,광주광역시,광산구,스타벅스,은하수점,126.846520406471,35.2182190474053,광주광역시 광산구 임방울대로 805,광주 광산,1,스타벅스
860,광주광역시,북구,스타벅스,광주두암타운점,126.937384822691,35.1621281135145,광주광역시 북구 삼정로 4,광주 북구,1,스타벅스
861,대구광역시,수성구,스타벅스,대구수성호수점,128.615879376176,35.826139262556794,대구광역시 수성구 용학로 56,대구 수성,1,스타벅스
862,대전광역시,대덕구,스타벅스대전한남대DT,대전한남대DT점,127.423135377402,36.3585082703083,대전광역시 대덕구 한밭대로 1122,대전 대덕,1,스타벅스
863,울산광역시,남구,스타벅스,울산도산사거리DT점,129.330182409251,35.53085389305829,울산광역시 남구 번영로 59,울산 남구,1,스타벅스
864,세종특별자치시,세종특별자치시,스타벅스,-점,127.25920208567,36.5047211636574,세종특별자치시 세종특별자치시 도움5로 19,세종,1,스타벅스
865,인천광역시,연수구,스타벅스,송도트리플R점,126.660941544716,37.379850320667295,인천광역시 연수구 송도과학로16번길 33-3,인천 연수,1,스타벅스
866,대전광역시,서구,스타벅스,대전건양대병원점,127.341157321359,36.3072989892043,대전광역시 서구 관저동로 170,대전 서구,1,스타벅스
867,대전광역시,서구,스타벅스,대전정부청사역점,127.38251271813999,36.358170066296,대전광역시 서구 한밭대로 755,대전 서구,1,스타벅스
868,대구광역시,달서구,스타벅스,대구월촌역점,128.54520969721702,35.8240289613299,대구광역시 달서구 월배로 315,대구 달서,1,스타벅스
869,대구광역시,수성구,스타벅스,대구수성동점,128.620322658569,35.8538231490581,대구광역시 수성구 명덕로 460,대구 수성,1,스타벅스
870,인천광역시,연수구,스타벅스,인천송도DT점,126.644265701429,37.3848052477512,인천광역시 연수구 하모니로 136,인천 연수,1,스타벅스
871,대전광역시,서구,스타벅스,대전복수점,127.37824135475901,36.2983678760776,대전광역시 서구 복수남로 28,대전 서구,1,스타벅스
872,광주광역시,서구,스타벅스,광주화정DT점,126.879927043534,35.1522631310807,광주광역시 서구 군분로245번길 12,광주 서구,1,스타벅스
873,울산광역시,중구,스타벅스,울산MBCDT점,129.332367669386,35.5616454401906,울산광역시 중구 번영로 434,울산 중구,1,스타벅스
874,인천광역시,중구,스타벅스,인천공항입국점,126.46132126949101,37.440375362878,인천광역시 중구 공항로424번길 47,인천 중구,1,스타벅스
875,광주광역시,남구,스타벅스,광주봉선로점,126.907328265998,35.1237769772957,광주광역시 남구 제석로 104,광주 남구,1,스타벅스
876,대전광역시,서구,스타벅스,대전탄방역점,127.385504978428,36.3432157467673,대전광역시 서구 문정로2번길 95,대전 서구,1,스타벅스
877,대구광역시,중구,스타벅스,대구시티센터점,128.598120429496,35.870961704704705,대구광역시 중구 국채보상로 611,대구 중구,1,스타벅스
878,대구광역시,달서구,스타벅스,대구월곡DT점,128.54104160408002,35.8148722321362,대구광역시 달서구 월곡로 225,대구 달서,1,스타벅스
879,인천광역시,연수구,스타벅스,인천스퀘어원점,126.68360882355302,37.4059827608181,인천광역시 연수구 청능대로 210,인천 연수,1,스타벅스
880,광주광역시,북구,스타벅스,광주신안DT점,126.894977743764,35.1714476413958,광주광역시 북구 서암대로 93,광주 북구,1,스타벅스
881,광주광역시,광산구,스타벅스,광주산정DT점,126.804217252708,35.173569225602,광주광역시 광산구 용아로 342,광주 광산,1,스타벅스
882,광주광역시,광산구,스타벅스,광주운남DT점,126.818048243402,35.1751561957768,광주광역시 광산구 임방울대로 156,광주 광산,1,스타벅스
883,대구광역시,수성구,스타벅스,대구범어네거리R점,128.624991860808,35.8576836543237,대구광역시 수성구 동대구로 305,대구 수성,1,스타벅스
884,경기도,수원시 권선구,스타벅스,수원이마트점,127.020087664145,37.2501017782401,경기도 수원시 권선구 경수대로 270,수원 권선,1,스타벅스
885,강원도,원주시,스타벅스,-점,127.931032015516,37.3484655132127,강원도 원주시 금불1길 28-5,원주,1,스타벅스
886,경기도,김포시,스타벅스,-점,126.683329055879,37.654247307349,경기도 김포시 김포한강11로 288-24,김포,1,스타벅스
887,경기도,고양시 일산서구,스타벅스,-점,126.751616105658,37.6679823561386,경기도 고양시 일산서구 호수로 817,고양 일산서,1,스타벅스
888,충청북도,충주시,스타벅스,-점,127.92439781486999,36.972649743369004,충청북도 충주시 사직산19길 26,충주,1,스타벅스
889,경기도,성남시 분당구,스타벅스정자,정자점,127.10629219693399,37.364879690318,경기도 성남시 분당구 정자일로 166,성남 분당,1,스타벅스
890,경기도,구리시,스타벅스,구리인창점,127.138865274352,37.6069309398692,경기도 구리시 건원대로 67,구리,1,스타벅스
891,경기도,성남시 중원구,스타벅스,단대오거리역점,127.154576016315,37.4433580851162,경기도 성남시 중원구 산성대로 340-1,성남 중원,1,스타벅스
892,경기도,안양시 동안구,스타벅스평촌역사거리점,평촌역사거리점,126.964668495517,37.3960821601934,경기도 안양시 동안구 시민대로 311,안양 동안,1,스타벅스
893,경기도,수원시 영통구,스타벅스커피수원광교,커피수원광교점,127.05120391333901,37.29012033969229,경기도 수원시 영통구 센트럴타운로 85,수원 영통,1,스타벅스
894,경기도,수원시 영통구,스타벅스,수원트레이더스점,127.04857798251498,37.24606294553461,경기도 수원시 영통구 삼성로 2,수원 영통,1,스타벅스
895,경기도,성남시 분당구,스타벅스,판교하이펙스점,127.11044579092,37.401278507530606,경기도 성남시 분당구 판교역로 230,성남 분당,1,스타벅스
896,경기도,광주시,스타벅스경기광주점,경기광주점,127.26020005832599,37.409735243374904,경기도 광주시 광주대로 35,광주,1,스타벅스
897,경기도,수원시 팔달구,스타벅스동수원,동수원점,127.03389894210699,37.2781130343329,경기도 수원시 팔달구 중부대로 161,수원 팔달,1,스타벅스
898,경기도,성남시 분당구,스타벅스커피분당서울대병원4층,커피분당서울대병원4층점,127.124470630558,37.3520220371583,경기도 성남시 분당구 구미로173번길 82,성남 분당,1,스타벅스
899,강원도,홍천군,스타벅스,오션월드2호점,127.687272903554,37.652323738755705,강원도 홍천군 서면 한치골길 262,홍천,1,스타벅스
900,경기도,용인시 수지구,스타벅스,수지풍덕천점,127.095266677789,37.3222016808726,경기도 용인시 수지구 수지로296번길 51-11,용인 수지,1,스타벅스
901,경기도,성남시 분당구,스타벅스판교하이펙스,판교하이펙스점,127.110447392748,37.4020984979811,경기도 성남시 분당구 판교역로 240,성남 분당,1,스타벅스
902,경기도,용인시 수지구,스타벅스,신세계죽전점,127.108096227685,37.3249933296323,경기도 용인시 수지구 포은대로 536,용인 수지,1,스타벅스
903,경기도,오산시,스타벅스,오산아이씨디티점,127.076848689491,37.142308336914795,경기도 오산시 원동로 74,오산,1,스타벅스
904,경기도,성남시 분당구,스타벅스야탑글라스,야탑글라스점,127.129829942146,37.4108480040811,경기도 성남시 분당구 성남대로916번길 11,성남 분당,1,스타벅스
905,경기도,부천시,스타벅스,부천신중동역점,126.77413636305,37.5037910259875,경기도 부천시 길주로 281,부천,1,스타벅스
906,경기도,고양시 덕양구,스타벅스,화정역점,126.832721991985,37.6336102001311,경기도 고양시 덕양구 화신로260번길 57,고양 덕양,1,스타벅스
907,경기도,광명시,스타벅스,광명하안점,126.880646185624,37.462598327452795,경기도 광명시 범안로 1060,광명,1,스타벅스
908,경기도,군포시,스타벅스,산본역점,126.93228249093,37.3583097992139,경기도 군포시 번영로 497,군포,1,스타벅스
909,경기도,부천시,스타벅스,부천중동점,126.777024513246,37.4979912682125,경기도 부천시 신흥로 161,부천,1,스타벅스
910,경기도,성남시 분당구,스타벅스,수내로점,127.11658679513201,37.380392525885604,경기도 성남시 분당구 수내로46번길 12,성남 분당,1,스타벅스
911,경기도,부천시,스타벅스부천역사,부천역사점,126.78263424711001,37.4840290791579,경기도 부천시 부천로 1,부천,1,스타벅스
912,경기도,고양시 일산동구,스타벅스,일산백마점,126.788064183267,37.6571088791044,경기도 고양시 일산동구 일산로 237,고양 일산동,1,스타벅스
913,경기도,시흥시,스타벅스,시화로데오점,126.73732894675899,37.3446575868247,경기도 시흥시 중심상가2길 20-5,시흥,1,스타벅스
914,경기도,수원시 권선구,스타벅스,수원시청점,127.031214826476,37.2614209425035,경기도 수원시 권선구 효원로 274,수원 권선,1,스타벅스
915,경기도,수원시 영통구,스타벅스,수원망포역점,127.05579157160601,37.2451745362739,경기도 수원시 영통구 영통로 195,수원 영통,1,스타벅스
916,충청북도,청주시 흥덕구,스타벅스청주지웰씨티,청주지웰씨티점,127.425105075506,36.64273813235821,충청북도 청주시 흥덕구 대농로 17,청주 흥덕,1,스타벅스
917,경기도,양주시,스타벅스,양주고읍점,127.079089929697,37.79465939687479,경기도 양주시 고읍남로 20,양주,1,스타벅스
918,충청북도,청주시 흥덕구,스타벅스,청주터미널점,127.432258044964,36.6265596956502,충청북도 청주시 흥덕구 풍산로 15,청주 흥덕,1,스타벅스
919,경기도,안양시 만안구,스타벅스,안양1번가점,126.92369516915501,37.39918538578979,경기도 안양시 만안구 안양로292번길 36,안양 만안,1,스타벅스
920,경기도,고양시 덕양구,스타벅스,화정점,126.83143160384199,37.63353435467821,경기도 고양시 덕양구 화신로272번길 57,고양 덕양,1,스타벅스
921,경기도,김포시,스타벅스김포풍무DT,김포풍무DT점,126.72050182595,37.599955990565796,경기도 김포시 풍무로 45-1,김포,1,스타벅스
922,경기도,안양시 동안구,스타벅스,평촌로데오점,126.960702698023,37.3929296814883,경기도 안양시 동안구 관평로 182,안양 동안,1,스타벅스
923,경기도,군포시,스타벅스,산본점,126.93174189577499,37.3606116540182,경기도 군포시 산본로343번길 9,군포,1,스타벅스
924,경기도,고양시 일산서구,스타벅스,주엽사거리점,126.75895834214701,37.6715467476635,경기도 고양시 일산서구 중앙로 1456,고양 일산서,1,스타벅스
925,경기도,성남시 분당구,스타벅스,분당구청점,127.120258905034,37.3840602572395,경기도 성남시 분당구 분당로 43,성남 분당,1,스타벅스
926,경기도,오산시,스타벅스,오산시청점,127.07420621303001,37.1485504490323,경기도 오산시 성호대로 116,오산,1,스타벅스
927,경기도,수원시 장안구,스타벅스,수원성균관대점,126.97156195882499,37.298961539019,경기도 수원시 장안구 서부로 2131,수원 장안,1,스타벅스
928,경기도,고양시 일산동구,스타벅스,일산동구청점,126.77311114669901,37.6567020093843,경기도 고양시 일산동구 정발산로 38,고양 일산동,1,스타벅스
929,경기도,성남시 분당구,스타벅스,서현역점,127.12402092583099,37.385854297475795,경기도 성남시 분당구 서현로210번길 20,성남 분당,1,스타벅스
930,경기도,용인시 기흥구,스타벅스,용인기흥구청점,127.110727384765,37.2826619109289,경기도 용인시 기흥구 구갈로 71-18,용인 기흥,1,스타벅스
931,경기도,수원시 팔달구,스타벅스,동수원DT점,127.03353779295901,37.278137118976495,경기도 수원시 팔달구 중부대로 157,수원 팔달,1,스타벅스
932,충청북도,청주시 상당구,스타벅스청주성안길,청주성안길점,127.489402714752,36.6335052636079,충청북도 청주시 상당구 성안로 37,청주 상당,1,스타벅스
933,강원도,고성군,스타벅스,대명델피노리조트점,128.493408377372,38.21312823782071,강원도 고성군 토성면 미시령옛길 1153,고성(강원),1,스타벅스
934,경기도,성남시 분당구,스타벅스,뉴코아야탑점,127.12746808049,37.4109297153589,경기도 성남시 분당구 야탑로81번길 11,성남 분당,1,스타벅스
935,충청북도,청주시 흥덕구,스타벅스,청주강서점,127.429616825902,36.625384521156995,충청북도 청주시 흥덕구 강서로 121,청주 흥덕,1,스타벅스
936,경기도,수원시 팔달구,스타벅스,수원인계점,127.03289838935899,37.2655346685802,경기도 수원시 팔달구 권광로 199,수원 팔달,1,스타벅스
937,경기도,용인시 수지구,스타벅스,광교신대역점,127.069161875958,37.2990124975391,경기도 용인시 수지구 광교마을로 41,용인 수지,1,스타벅스
938,경기도,수원시 팔달구,스타벅스,수원매산점,127.00271427825899,37.2674378523607,경기도 수원시 팔달구 매산로 11,수원 팔달,1,스타벅스
939,경기도,부천시,스타벅스,송내역점,126.75258813734,37.4883289485642,경기도 부천시 부일로 204,부천,1,스타벅스
940,충청북도,청주시 흥덕구,스타벅스현대충청,현대충청점,127.426554331926,36.6448629530442,충청북도 청주시 흥덕구 직지대로 308,청주 흥덕,1,스타벅스
941,강원도,춘천시,스타벅스,강대점,127.745086615044,37.8727596024213,강원도 춘천시 서부대성로 243-1,춘천,1,스타벅스
942,충청북도,청주시 서원구,스타벅스,충북대점,127.45971128309799,36.6339871447744,충청북도 청주시 서원구 내수동로 113,청주 서원,1,스타벅스
943,경기도,고양시 일산동구,스타벅스,라페스타광장점,126.770149415182,37.659680543564704,경기도 고양시 일산동구 중앙로1275번길 38-9,고양 일산동,1,스타벅스
944,경기도,이천시,스타벅스커피마장휴게소,커피마장휴게소점,127.40847571045401,37.262744409998,경기도 이천시 마장면 중부고속도로 82,이천,1,스타벅스
945,경기도,고양시 일산동구,스타벅스,백석점,126.786148315475,37.6439163563375,경기도 고양시 일산동구 중앙로 1059,고양 일산동,1,스타벅스
946,충청북도,충주시,스타벅스,충주연수점,127.939911813065,36.9827336746648,충청북도 충주시 계명대로 227,충주,1,스타벅스
947,충청북도,충주시,스타벅스,충주성서점,127.932913165485,36.970510076009,충청북도 충주시 예성로 151,충주,1,스타벅스
948,경기도,성남시 분당구,스타벅스,판교역로점,127.111395465133,37.39737498041861,경기도 성남시 분당구 판교역로192번길 14,성남 분당,1,스타벅스
949,경기도,용인시 수지구,스타벅스,죽전점,127.12475401039801,37.3314974163333,경기도 용인시 수지구 현암로 140,용인 수지,1,스타벅스
950,경기도,용인시 기흥구,스타벅스,강남대점,127.126131428473,37.2709903107511,경기도 용인시 기흥구 강남로 3,용인 기흥,1,스타벅스
951,경기도,성남시 분당구,스타벅스오리역삼거리,오리역삼거리점,127.10838098932899,37.34004360182049,경기도 성남시 분당구 성남대로 45,성남 분당,1,스타벅스
952,경기도,부천시,스타벅스,부천상동점,126.752397733593,37.5052123044618,경기도 부천시 상동로 87,부천,1,스타벅스
953,경기도,김포시,스타벅스,김포장기점,126.66794907612899,37.6441906147977,경기도 김포시 김포한강4로 117,김포,1,스타벅스
954,경기도,성남시 분당구,스타벅스,정자상떼뷰점,127.10558437802099,37.3702988413496,경기도 성남시 분당구 정자일로213번길 18,성남 분당,1,스타벅스
955,경기도,성남시 분당구,스타벅스분당정자분당정자점,분당정자분당정자점,127.10720528516501,37.3716627072825,경기도 성남시 분당구 성남대로 393,성남 분당,1,스타벅스
956,경기도,성남시 분당구,스타벅스,미금역점,127.10665636594801,37.3503479964361,경기도 성남시 분당구 돌마로 43,성남 분당,1,스타벅스
957,경기도,화성시,스타벅스,동탄광장점,127.072034880212,37.20460931122921,경기도 화성시 동탄지성로 17,화성,1,스타벅스
958,경기도,성남시 분당구,스타벅스정자아데나,정자아데나점,127.10760396940701,37.3608797851082,경기도 성남시 분당구 성남대로 275,성남 분당,1,스타벅스
959,경기도,성남시 분당구,스타벅스,서현점,127.12592898259899,37.385886437451504,경기도 성남시 분당구 황새울로360번길 19,성남 분당,1,스타벅스
960,경기도,수원시 팔달구,스타벅스,수원이비스점,127.03129946049499,37.259213962314,경기도 수원시 팔달구 권광로 132,수원 팔달,1,스타벅스
961,경기도,안산시 단원구,스타벅스,안산문화광장점,126.83072474056401,37.310160717624704,경기도 안산시 단원구 광덕대로 154,안산 단원,1,스타벅스
962,경기도,성남시 분당구,스타벅스,판교봇들마을점,127.11566934642201,37.4037055404319,경기도 성남시 분당구 판교로 372,성남 분당,1,스타벅스
963,경기도,하남시,스타벅스,하남시청점,127.215966129307,37.54051991029171,경기도 하남시 대청로 34,하남,1,스타벅스
964,경기도,안양시 만안구,스타벅스,안양역점,126.922165542127,37.400315800541,경기도 안양시 만안구 장내로149번길 53,안양 만안,1,스타벅스
965,경기도,성남시 분당구,스타벅스,판교브릿지타워점,127.099278683706,37.4028789753799,경기도 성남시 분당구 판교로227번길 6,성남 분당,1,스타벅스
966,경기도,부천시,스타벅스,역곡역DT점,126.80929297345699,37.4835078586476,경기도 부천시 경인로 485,부천,1,스타벅스
967,경기도,용인시 기흥구,스타벅스,용인중부대로점,127.074831448715,37.2670952709518,경기도 용인시 기흥구 중부대로 56,용인 기흥,1,스타벅스
968,경기도,파주시,스타벅스,파주운정점,126.744458195993,37.7120285598793,경기도 파주시 와석순환로 135,파주,1,스타벅스
969,경기도,용인시 기흥구,스타벅스,용인마북DT점,127.110338230918,37.2946435115567,경기도 용인시 기흥구 용구대로 2330,용인 기흥,1,스타벅스
970,경기도,이천시,스타벅스이천터미널,이천터미널점,127.446334174098,37.278219380447204,경기도 이천시 중리천로 84,이천,1,스타벅스
971,충청북도,청주시 상당구,스타벅스청주서문점,청주서문점,127.48600234995199,36.63534713712121,충청북도 청주시 상당구 무심동로392번길 20,청주 상당,1,스타벅스
972,충청북도,청주시 청원구,스타벅스,오창과학단지점,127.423268710553,36.71649257700871,충청북도 청주시 청원구 오창읍 과학산업2로 385,청주 청원,1,스타벅스
973,경기도,이천시,스타벅스,이천하이닉스점,127.48995592847601,37.252571373959796,경기도 이천시 부발읍 경충대로 2100,이천,1,스타벅스
974,경기도,부천시,스타벅스,부천스테이트몰점,126.777835542948,37.498882676981204,경기도 부천시 신흥로 170,부천,1,스타벅스
975,경기도,남양주시,스타벅스,평내DT점,127.23466006379,37.64775979511021,경기도 남양주시 경춘로 1269,남양주,1,스타벅스
976,강원도,속초시,스타벅스,속초중앙로점,128.589463214419,38.2026214250362,강원도 속초시 중앙로 123,속초,1,스타벅스
977,경기도,고양시 일산동구,스타벅스,백석역점,126.787382470059,37.64397409976829,경기도 고양시 일산동구 중앙로 1054,고양 일산동,1,스타벅스
978,경기도,의정부시,스타벅스,의정부중앙점,127.04814006604201,37.739586565271296,경기도 의정부시 행복로 7,의정부,1,스타벅스
979,경기도,파주시,스타벅스파주금릉역,파주금릉역점,126.765931116178,37.7521425603281,경기도 파주시 금릉역로 84,파주,1,스타벅스
980,경기도,구리시,스타벅스,구리돌다리점,127.14192790548701,37.6006098780667,경기도 구리시 검배로 5,구리,1,스타벅스
981,경기도,용인시 수지구,스타벅스,수지이마트점,127.08331422604601,37.31973082272521,경기도 용인시 수지구 수지로 203,용인 수지,1,스타벅스
982,경기도,안양시 동안구,스타벅스,안양비산DT점,126.94285348097,37.3925281637662,경기도 안양시 동안구 경수대로 821,안양 동안,1,스타벅스
983,경기도,안양시 동안구,스타벅스,평촌아크로타워점,126.95649889206499,37.392306965353605,경기도 안양시 동안구 시민대로 230,안양 동안,1,스타벅스
984,경기도,성남시 분당구,스타벅스,-점,127.10629219693399,37.364879690318,경기도 성남시 분당구 정자일로 166,성남 분당,1,스타벅스
985,경기도,안양시 동안구,스타벅스,-점,126.955099032598,37.391456612415,경기도 안양시 동안구 평촌대로 223,안양 동안,1,스타벅스
986,경기도,성남시 분당구,스타벅스판교에이치스퀘어,판교에이치스퀘어점,127.10863878625099,37.40126489902449,경기도 성남시 분당구 판교역로 231,성남 분당,1,스타벅스
987,경기도,성남시 분당구,스타벅스,수내점,127.11422571688699,37.3795278512968,경기도 성남시 분당구 황새울로 234,성남 분당,1,스타벅스
988,경기도,성남시 분당구,스타벅스,정자역점,127.10672097855,37.3668022303884,경기도 성남시 분당구 성남대로343번길 12-2,성남 분당,1,스타벅스
989,경기도,용인시 처인구,스타벅스커피용인처인구청,커피용인처인구청점,127.202926246884,37.234749233248,경기도 용인시 처인구 금령로 60,용인 처인,1,스타벅스
990,경기도,성남시 분당구,스타벅스커피분당서울대병원1층,커피분당서울대병원1층점,127.124470630558,37.3520220371583,경기도 성남시 분당구 구미로173번길 82,성남 분당,1,스타벅스
991,경기도,안성시,스타벅스,안성중앙로점,127.270768046049,37.007516695545796,경기도 안성시 중앙로 395,안성,1,스타벅스
992,경기도,성남시 분당구,스타벅스,수내역점,127.11380627139,37.3777495836705,경기도 성남시 분당구 백현로101번길 30,성남 분당,1,스타벅스
993,강원도,강릉시,스타벅스,-점,128.904526194739,37.760727854969204,강원도 강릉시 경강로 2194-1,강릉,1,스타벅스
994,경기도,수원시 영통구,스타벅스,광교이마트점,127.046941286326,37.296339638053105,경기도 수원시 영통구 광교로 191,수원 영통,1,스타벅스
995,경기도,평택시,스타벅스,평택로데오점,127.088521198318,36.9919560649725,경기도 평택시 중앙2로 13,평택,1,스타벅스
996,경기도,고양시 일산서구,스타벅스,킨텍스이마트점,126.742244215322,37.663837258588295,경기도 고양시 일산서구 한류월드로 407,고양 일산서,1,스타벅스
997,경기도,성남시 분당구,스타벅스분당정자,분당정자점,127.10720528516501,37.3716627072825,경기도 성남시 분당구 성남대로 393,성남 분당,1,스타벅스
998,강원도,춘천시,스타벅스,춘천이마트점,127.71726044510599,37.8639560859478,강원도 춘천시 경춘로 2341,춘천,1,스타벅스
999,경기도,고양시 일산동구,스타벅스웨스턴돔2,웨스턴돔2점,126.772025233806,37.655888808787,경기도 고양시 일산동구 정발산로 24,고양 일산동,1,스타벅스
1000,경기도,성남시 분당구,스타벅스,분당이마트점,127.119741184902,37.3587901131149,경기도 성남시 분당구 불정로 134,성남 분당,1,스타벅스
1001,경기도,성남시 분당구,스타벅스서현골든프라자,서현골든프라자점,127.12168116682699,37.3860441907195,경기도 성남시 분당구 황새울로335번길 5,성남 분당,1,스타벅스
1002,경기도,안양시 동안구,스타벅스,-점,126.966124983447,37.39611292563061,경기도 안양시 동안구 시민대로 325,안양 동안,1,스타벅스
1003,경기도,수원시 영통구,스타벅스광교아브뉴프랑점,광교아브뉴프랑점,127.05120391333901,37.29012033969229,경기도 수원시 영통구 센트럴타운로 85,수원 영통,1,스타벅스
1004,경기도,고양시 일산서구,스타벅스일산,일산점,126.76214957853,37.6950605265679,경기도 고양시 일산서구 일현로 97-11,고양 일산서,1,스타벅스
1005,경기도,고양시 일산서구,스타벅스,일산주엽점,126.762658313189,37.669900737663,경기도 고양시 일산서구 중앙로 1420,고양 일산서,1,스타벅스
1006,경기도,성남시 분당구,스타벅스서판교점,서판교점,127.077723024437,37.3912871866278,경기도 성남시 분당구 운중로 132,성남 분당,1,스타벅스
1007,경기도,안성시,스타벅스,-점,127.37574806389799,37.0750071973537,경기도 안성시 삼죽면 삼백로 10,안성,1,스타벅스
1008,충청북도,음성군,스타벅스,-점,127.654434431807,36.87646644597511,충청북도 음성군 원남면 보천로 65,음성,1,스타벅스
1009,경기도,안산시 단원구,스타벅스,-점,126.795007538105,37.3307791487073,경기도 안산시 단원구 원본로5길 13,안산 단원,1,스타벅스
1010,강원도,삼척시,스타벅스,-점,129.165409483626,37.443582504588,강원도 삼척시 진주로 30-49,삼척,1,스타벅스
1011,강원도,원주시,스타벅스,문막점,127.816601464438,37.3069552958556,강원도 원주시 문막읍 문막시장1길 32,원주,1,스타벅스
1012,경기도,동두천시,스타벅스,-점,127.05593729953002,37.9123634981601,경기도 동두천시 중앙로 348,동두천,1,스타벅스
1013,강원도,고성군,스타벅스,-점,128.47102546062598,38.3792218504065,강원도 고성군 간성읍 간성로 36,고성(강원),1,스타벅스
1014,경기도,오산시,스타벅스,-점,127.06879810281099,37.15260813286979,경기도 오산시 오산로 288,오산,1,스타벅스
1015,경기도,고양시 덕양구,스타벅스,-점,126.900704897531,37.703966164506,경기도 고양시 덕양구 벽제관로 32,고양 덕양,1,스타벅스
1016,경기도,고양시 덕양구,스타벅스,-점,126.870393068627,37.6014138330048,경기도 고양시 덕양구 화랑로 29-1,고양 덕양,1,스타벅스
1017,강원도,태백시,스타벅스,-점,129.01029100020799,37.100894569579104,강원도 태백시 장성시장1길 6,태백,1,스타벅스
1018,경기도,포천시,스타벅스,-점,127.36782405858,38.0364656905245,경기도 포천시 이동면 장암2길 26-2,포천,1,스타벅스
1019,경기도,구리시,스타벅스,-점,127.139163715123,37.5997067226436,경기도 구리시 체육관로172번길 54,구리,1,스타벅스
1020,경기도,안성시,스타벅스,-점,127.478894702405,37.0938884955922,경기도 안성시 일죽면 금일로 474,안성,1,스타벅스
1021,강원도,인제군,스타벅스,-점,128.31840740442,37.9558684267042,강원도 인제군 기린면 기린로42번길 3-1,인제,1,스타벅스
1022,경기도,평택시,스타벅스,-점,127.083303792302,36.995168983839605,경기도 평택시 평택로 99,평택,1,스타벅스
1023,경기도,광주시,스타벅스,-점,127.25884469058599,37.4097177440556,경기도 광주시 경안로 17,광주,1,스타벅스
1024,경기도,성남시 분당구,스타벅스,-점,127.109483121938,37.3508829268316,경기도 성남시 분당구 성남대로 168,성남 분당,1,스타벅스
1025,경기도,평택시,스타벅스,-점,127.057157809741,37.0709201510151,경기도 평택시 송탄2로 20-7,평택,1,스타벅스
1026,경기도,양주시,스타벅스,-점,126.97440482654899,37.896238266366296,경기도 양주시 남면 개나리11길 1,양주,1,스타벅스
1027,경기도,평택시,스타벅스,-점,126.92649750652001,36.9861948993652,경기도 평택시 안중읍 안현로서4길 44,평택,1,스타벅스
1028,경기도,화성시,스타벅스,-점,126.97793844344801,37.216089706293296,경기도 화성시 봉담읍 효행로 370-6,화성,1,스타벅스
1029,경기도,부천시,스타벅스,부천점,126.782086091756,37.4850596229864,경기도 부천시 부천로 7,부천,1,스타벅스
1030,경기도,성남시 분당구,스타벅스,미금역사거리점,127.10826050008801,37.3492788002539,경기도 성남시 분당구 성남대로 151,성남 분당,1,스타벅스
1031,경기도,수원시 영통구,스타벅스,수원영통점,127.074307905351,37.2555211345615,경기도 수원시 영통구 봉영로 1617,수원 영통,1,스타벅스
1032,경기도,용인시 수지구,스타벅스,수지동천점,127.090993898199,37.3359645416191,경기도 용인시 수지구 손곡로 103,용인 수지,1,스타벅스
1033,경기도,김포시,스타벅스,김포시청점,126.717908744303,37.6184166524856,경기도 김포시 사우중로 35,김포,1,스타벅스
1034,경기도,고양시 일산서구,스타벅스,주엽점,126.76277481877199,37.669027981152894,경기도 고양시 일산서구 중앙로 1413,고양 일산서,1,스타벅스
1035,충청북도,청주시 흥덕구,스타벅스청주지웰시티점,청주지웰시티점,127.425105075506,36.64273813235821,충청북도 청주시 흥덕구 대농로 17,청주 흥덕,1,스타벅스
1036,경기도,파주시,스타벅스,금릉역점,126.765931116178,37.7521425603281,경기도 파주시 금릉역로 84,파주,1,스타벅스
1037,경기도,여주시,스타벅스,여주첼시점,127.61237886156601,37.2459435784652,경기도 여주시 명품로 360,여주,1,스타벅스
1038,경기도,용인시 처인구,스타벅스용인처인구청점,용인처인구청점,127.202926246884,37.234749233248,경기도 용인시 처인구 금령로 60,용인 처인,1,스타벅스
1039,경기도,이천시,스타벅스,마장휴게소하남방면점,127.40847571045401,37.262744409998,경기도 이천시 마장면 중부고속도로 82,이천,1,스타벅스
1040,경기도,이천시,스타벅스,이천터미널점,127.446334174098,37.278219380447204,경기도 이천시 중리천로 84,이천,1,스타벅스
1041,강원도,평창군,스타벅스,용평리조트점,128.70554181103398,37.6509528563083,강원도 평창군 대관령면 올림픽로 715,평창,1,스타벅스
1042,경기도,안산시 단원구,스타벅스,안산트레이더스점,126.78499237515499,37.3311723031685,경기도 안산시 단원구 중앙대로 397,안산 단원,1,스타벅스
1043,경기도,성남시 분당구,스타벅스,분당서울대병원1층점,127.124470630558,37.3520220371583,경기도 성남시 분당구 구미로173번길 82,성남 분당,1,스타벅스
1044,경기도,의정부시,스타벅스,의정부금오점,127.07046112864201,37.7529105967189,경기도 의정부시 청사로48번길 7,의정부,1,스타벅스
1045,경기도,수원시 팔달구,스타벅스,아주대점,127.043374246075,37.2796407394145,경기도 수원시 팔달구 월드컵로 205,수원 팔달,1,스타벅스
1046,경기도,수원시 영통구,스타벅스,수원경희대점,127.076744923256,37.2479619506647,경기도 수원시 영통구 덕영대로 1695,수원 영통,1,스타벅스
1047,경기도,안산시 단원구,스타벅스,안산중앙역점,126.837702361526,37.3170955951917,경기도 안산시 단원구 중앙대로 907,안산 단원,1,스타벅스
1048,경기도,화성시,스타벅스,동탄점,127.07316431615601,37.2016084714533,경기도 화성시 메타폴리스로 54,화성,1,스타벅스
1049,경기도,부천시,스타벅스,현대중동점,126.762071535382,37.5043049309835,경기도 부천시 길주로 180,부천,1,스타벅스
1050,경기도,군포시,스타벅스,산본동점,126.929426266681,37.36548351678221,경기도 군포시 산본로 398,군포,1,스타벅스
1051,경기도,수원시 팔달구,스타벅스,뉴코아동수원점,127.03430915259199,37.266303100253,경기도 수원시 팔달구 인계로 154,수원 팔달,1,스타벅스
1052,경기도,용인시 기흥구,스타벅스,용인보정점,127.11035502415399,37.3200273231764,경기도 용인시 기흥구 죽전로 20,용인 기흥,1,스타벅스
1053,경기도,안산시 상록구,스타벅스,안산한대앞역점,126.851233957869,37.3086405515635,경기도 안산시 상록구 광덕1로 379,안산 상록,1,스타벅스
1054,경기도,안산시 상록구,스타벅스,안산한양대점,126.83823309335101,37.3009356381822,경기도 안산시 상록구 성안길 82-3,안산 상록,1,스타벅스
1055,강원도,춘천시,스타벅스,춘천명동점,127.727566445736,37.8800367182363,강원도 춘천시 중앙로 55,춘천,1,스타벅스
1056,경기도,포천시,스타벅스,포천송우점,127.144579914734,37.827346390543,경기도 포천시 소흘읍 솔모루로 55,포천,1,스타벅스
1057,강원도,원주시,스타벅스,원주터미널점,127.931103954128,37.343851860227,강원도 원주시 서원대로 178,원주,1,스타벅스
1058,경기도,평택시,스타벅스,평택송탄점,127.062970174592,37.06647862420761,경기도 평택시 관광특구로 38,평택,1,스타벅스
